[
	{
		"brand": "",
		"name": "리본",
		"contact": "010-9951-0151",
		"address": "서울 서초구 서초중앙로 18 지하 2층",
		"url": "https://naver.me/FArb0k36",
		"studio": 1,
		"booth": 0,
		"lng": 127.0173,
		"lat": 37.48398
	},
	{
		"brand": "",
		"name": "추억상점",
		"contact": "0507-1475-5202",
		"address": "서울 서초구 효령로 34길 4 지하 1층",
		"url": "https://naver.me/GOuQpUuo",
		"studio": 1,
		"booth": 0,
		"lng": 126.9989,
		"lat": 37.48136
	},
	{
		"brand": "",
		"name": "삐우",
		"contact": "0507-1317-3587",
		"address": "서울 강남구 봉은사로 74길 20 지하 1층",
		"url": "https://naver.me/51Yvagof",
		"studio": 1,
		"booth": 0,
		"lng": 127.0521,
		"lat": 37.5112
	},
	{
		"brand": "",
		"name": "셔터즈",
		"contact": "0507-1333-1698",
		"address": "서울 강남구 언주로 172길 25 5층",
		"url": "https://naver.me/GaMATgmS",
		"studio": 1,
		"booth": 0,
		"lng": 127.036,
		"lat": 37.52756
	},
	{
		"brand": "",
		"name": "캐논",
		"contact": "0507-1493-7503",
		"address": "서울 강남구 봉은사로 217 4층",
		"url": "https://naver.me/Fshxwg6L",
		"studio": 1,
		"booth": 0,
		"lng": 127.0357,
		"lat": 37.50819
	},
	{
		"brand": "",
		"name": "팔일오",
		"contact": "070-8844-1231",
		"address": "서울 강남구 선릉로 815",
		"url": "https://naver.me/xkemmyFS",
		"studio": 0,
		"booth": 1,
		"lng": 127.0393,
		"lat": 37.52487
	},
	{
		"brand": "",
		"name": "스튜디오33",
		"contact": "0507-1362-4766",
		"address": "서울 강남구 도산대로 49길 38 5층,6층",
		"url": "https://naver.me/57wLVGRG",
		"studio": 1,
		"booth": 0,
		"lng": 127.0373,
		"lat": 37.52544
	},
	{
		"brand": "",
		"name": "좋은날",
		"contact": "0507-1360-4502",
		"address": "서울 송파구 위례광장로 136 상가 E동",
		"url": "https://naver.me/IxbkodrA",
		"studio": 1,
		"booth": 0,
		"lng": 127.1421,
		"lat": 37.47645
	},
	{
		"brand": "",
		"name": "기억",
		"contact": "0507-1438-4544",
		"address": "서울 송파구 새말로 15길 8 4층",
		"url": "https://naver.me/59jHsQLO",
		"studio": 1,
		"booth": 0,
		"lng": 127.1301,
		"lat": 37.48508
	},
	{
		"brand": "",
		"name": "더모먼트",
		"contact": "0507-1383-5792",
		"address": "서울 송파구 오금로 526 5충",
		"url": "https://naver.me/FqlaI25V",
		"studio": 1,
		"booth": 0,
		"lng": 127.1471,
		"lat": 37.49278
	},
	{
		"brand": "",
		"name": "블리블리",
		"contact": "0507-1359-2516",
		"address": "서울 송파구 문정로 11길 24 2층",
		"url": "https://naver.me/GOuQpUuo",
		"studio": 1,
		"booth": 0,
		"lng": 127.1337,
		"lat": 37.49426
	},
	{
		"brand": "",
		"name": "피움",
		"contact": "0507-1319-4262",
		"address": "서울 송파구 오금로 11길 11-8 6층",
		"url": "https://naver.me/GZ0R620l",
		"studio": 1,
		"booth": 0,
		"lng": 127.1088,
		"lat": 37.51499
	},
	{
		"brand": "",
		"name": "오늘, 예쁨",
		"contact": "0507-1363-6710",
		"address": "서울 송파구 오금로 15길 7 3층",
		"url": "https://naver.me/xqvI1JXr",
		"studio": 1,
		"booth": 0,
		"lng": 127.1092,
		"lat": 37.5124
	},
	{
		"brand": "",
		"name": "이담",
		"contact": "0507-1328-2596",
		"address": "서울 송파구 올림픽로 32길 32 3층",
		"url": "https://naver.me/5ZvB3Dhc",
		"studio": 1,
		"booth": 0,
		"lng": 127.1097,
		"lat": 37.51321
	},
	{
		"brand": "",
		"name": "치이즈",
		"contact": "0507-1428-0450",
		"address": "서울 송파구 석촌호수로 140 1층",
		"url": "https://naver.me/55nq3ppN",
		"studio": 0,
		"booth": 1,
		"lng": 127.0925,
		"lat": 37.50702
	},
	{
		"brand": "",
		"name": "감성촬영소",
		"contact": "02-420-8001",
		"address": "서울 송파구 석촌호수로 234 라품미빌딩 3층",
		"url": "https://naver.me/5oQidrbu",
		"studio": 1,
		"booth": 0,
		"lng": 127.1027,
		"lat": 37.50765
	},
	{
		"brand": "",
		"name": "cheeznshot",
		"contact": "02-2143-1182",
		"address": "서울 송파구 올림픽로 240 롯데월드 지하 1층 매표소 앞",
		"url": "https://naver.me/FJHCY2rE",
		"studio": 1,
		"booth": 0,
		"lng": 127.0975,
		"lat": 37.51142
	},
	{
		"brand": "",
		"name": "이루",
		"contact": "010-8305-8395",
		"address": "서울 송파구 백제고분로 45길 22 반석빌딩 3층",
		"url": "https://naver.me/Fvn7n0Yu",
		"studio": 1,
		"booth": 0,
		"lng": 127.1094,
		"lat": 37.51003
	},
	{
		"brand": "",
		"name": "흑백담다",
		"contact": "02-6953-8851",
		"address": "서울 송파구 백제고분로 45길 29 2층",
		"url": "https://naver.me/F2FBPy6Y",
		"studio": 1,
		"booth": 0,
		"lng": 127.1083,
		"lat": 37.51029
	},
	{
		"brand": "",
		"name": "추억 담다",
		"contact": "010-8389-1155",
		"address": "경기 하남시 미사강변동로 72 에스비비즈타워 9층",
		"url": "https://naver.me/FZqY2mp7",
		"studio": 1,
		"booth": 0,
		"lng": 127.1939,
		"lat": 37.56161
	},
	{
		"brand": "",
		"name": "딩동댕댕",
		"contact": "0507-1365-8936",
		"address": "서울 강동구 구천면로 47가길 4 상가 1층",
		"url": "https://naver.me/xBp1M2r4",
		"studio": 1,
		"booth": 0,
		"lng": 127.1346,
		"lat": 37.54923
	},
	{
		"brand": "",
		"name": "흑백, 담다",
		"contact": "0507-1359-8851",
		"address": "서울 강동구 천호대로 157길 43",
		"url": "https://naver.me/xYQT946j",
		"studio": 1,
		"booth": 0,
		"lng": 127.1276,
		"lat": 37.53972
	},
	{
		"brand": "",
		"name": "아워니즈",
		"contact": "0507-1348-7684",
		"address": "서울 동작구 동작대로 7길 48 3층",
		"url": "https://naver.me/FjxmTQct",
		"studio": 1,
		"booth": 0,
		"lng": 126.9795,
		"lat": 37.47884
	},
	{
		"brand": "",
		"name": "아워픽",
		"contact": "0507-1412-5288",
		"address": "서울 동작구 서달로 14길 44 1층",
		"url": "https://naver.me/GXE6WkXj",
		"studio": 1,
		"booth": 0,
		"lng": 126.9653,
		"lat": 37.50723
	},
	{
		"brand": "",
		"name": "포토에이스",
		"contact": "정보 없음",
		"address": "서울 동작구 흑석로 93",
		"url": "https://naver.me/GbU3zuc5",
		"studio": 0,
		"booth": 1,
		"lng": 126.9598,
		"lat": 37.50743
	},
	{
		"brand": "",
		"name": "해그림사진관",
		"contact": "0507-1395-0388",
		"address": "서울 동작구 국사봉 1길 21 2층",
		"url": "https://naver.me/FrKi0kJ6",
		"studio": 1,
		"booth": 0,
		"lng": 126.9297,
		"lat": 37.49905
	},
	{
		"brand": "",
		"name": "제로원",
		"contact": "0507-1484-1219",
		"address": "서울 관악구 관악로 268 지하1층",
		"url": "https://naver.me/GDbKh7f8",
		"studio": 1,
		"booth": 0,
		"lng": 126.9583,
		"lat": 37.48793
	},
	{
		"brand": "",
		"name": "사진의 온도",
		"contact": "010-8896-5294",
		"address": "서울 관악구 남현길 6 3층",
		"url": "https://naver.me/GKov3H3U",
		"studio": 1,
		"booth": 0,
		"lng": 126.9774,
		"lat": 37.47625
	},
	{
		"brand": "",
		"name": "포토프렌즈",
		"contact": "정보 없음",
		"address": "서울 관악구 관악로 14길 59",
		"url": "https://naver.me/5y4uiSux",
		"studio": 0,
		"booth": 1,
		"lng": 126.9559,
		"lat": 37.47862
	},
	{
		"brand": "",
		"name": "클로버",
		"contact": "010-2165-7999",
		"address": "서울 관악구 쑥고개로 83 2층",
		"url": "https://naver.me/Ggef70pi",
		"studio": 1,
		"booth": 0,
		"lng": 126.9458,
		"lat": 37.47949
	},
	{
		"brand": "",
		"name": "유어데이",
		"contact": "0507-1411-6360",
		"address": "서울 관악구 양녕로 2길 30 지하 1층",
		"url": "https://naver.me/FQ5VbI5H",
		"studio": 1,
		"booth": 0,
		"lng": 126.9483,
		"lat": 37.48319
	},
	{
		"brand": "",
		"name": "일루시아",
		"contact": "정보 없음",
		"address": "서울 관악구 봉천로 14길 19 세현빌딩 1층",
		"url": "https://naver.me/xZOuYz0d",
		"studio": 1,
		"booth": 0,
		"lng": 126.9304,
		"lat": 37.48732
	},
	{
		"brand": "",
		"name": "선데이무드",
		"contact": "010-8452-5760",
		"address": "서울 관악구 남부순환로 1467 라비앙DS 3층",
		"url": "https://naver.me/5WcB94rz",
		"studio": 1,
		"booth": 0,
		"lng": 126.9137,
		"lat": 37.482
	},
	{
		"brand": "",
		"name": "아트씨",
		"contact": "0507-1415-0049",
		"address": "서울 관악구 신사로 104 혜성빌딩 4층",
		"url": "https://naver.me/xH2nt2qg",
		"studio": 1,
		"booth": 0,
		"lng": 126.914,
		"lat": 37.48713
	},
	{
		"brand": "",
		"name": "아이밍",
		"contact": "0507-1371-5092",
		"address": "서울 영등포구 가마산로 90길 19 1층",
		"url": "https://naver.me/5CzWtOPl",
		"studio": 1,
		"booth": 0,
		"lng": 126.9207,
		"lat": 37.50243
	},
	{
		"brand": "",
		"name": "사진점방",
		"contact": "0507-1367-6236",
		"address": "서울 영등포구 경인로 715 4층",
		"url": "https://naver.me/Gz2NZOUG",
		"studio": 1,
		"booth": 0,
		"lng": 126.8931,
		"lat": 37.5119
	},
	{
		"brand": "",
		"name": "문래동흑백상사",
		"contact": "0507-1314-1470",
		"address": "서울 영등포구 선유로 9길 10 SK V1센터 2층",
		"url": "https://naver.me/x1egeU6j",
		"studio": 1,
		"booth": 0,
		"lng": 126.8871,
		"lat": 37.51787
	},
	{
		"brand": "",
		"name": "FOTO",
		"contact": "0507-1370-8085",
		"address": "서울 영등포구 양평로 116 203호",
		"url": "https://naver.me/5wmBLshK",
		"studio": 1,
		"booth": 0,
		"lng": 126.8949,
		"lat": 37.53761
	},
	{
		"brand": "",
		"name": "그날의 사진관",
		"contact": "0507-1332-0540",
		"address": "서울 양천구 목동동로 435 화성프라자 2층",
		"url": "https://naver.me/GxOBNbpy",
		"studio": 1,
		"booth": 0,
		"lng": 126.8838,
		"lat": 37.53697
	},
	{
		"brand": "",
		"name": "road748",
		"contact": "0507-1316-6254",
		"address": "서울 양천구 목동중앙본로 3길 10 4층",
		"url": "https://naver.me/5XDhLK7b",
		"studio": 1,
		"booth": 0,
		"lng": 126.8688,
		"lat": 37.53913
	},
	{
		"brand": "",
		"name": "로컬",
		"contact": "0507-1415-5825",
		"address": "서울 양천구 신목로 45-1 지하 1층",
		"url": "https://naver.me/xevIjabM",
		"studio": 1,
		"booth": 0,
		"lng": 126.8726,
		"lat": 37.51927
	},
	{
		"brand": "",
		"name": "스톤",
		"contact": "0507-1399-8382",
		"address": "서울 양천구 오목로 345 지하 1층",
		"url": "https://naver.me/5izVEe0L",
		"studio": 1,
		"booth": 0,
		"lng": 126.8758,
		"lat": 37.5248
	},
	{
		"brand": "",
		"name": "아웃오브피스",
		"contact": "010-3811-7438",
		"address": "서울 양천구 신정동 1117",
		"url": "https://naver.me/xL14OWLV",
		"studio": 1,
		"booth": 0,
		"lng": 126.8636,
		"lat": 37.52521
	},
	{
		"brand": "",
		"name": "온기",
		"contact": "010-8398-8389",
		"address": "서울 강서구 마곡중앙 6로 21 이너매스 마곡 9층",
		"url": "https://naver.me/GvkdOpgD",
		"studio": 1,
		"booth": 0,
		"lng": 126.8296,
		"lat": 37.56084
	},
	{
		"brand": "",
		"name": "마음쏙",
		"contact": "0507-1349-1133",
		"address": "서울 강서구 가로공원로 228 2층",
		"url": "https://naver.me/xS8CIsly",
		"studio": 1,
		"booth": 0,
		"lng": 126.8413,
		"lat": 37.53772
	},
	{
		"brand": "",
		"name": "세이치즈",
		"contact": "0507-1488-0218",
		"address": "서울 강서구 화곡로 218 등마루빌 2층",
		"url": "https://naver.me/FpXYzbAu",
		"studio": 1,
		"booth": 0,
		"lng": 126.8444,
		"lat": 37.54456
	},
	{
		"brand": "",
		"name": "서쪽",
		"contact": "0507-1324-7065",
		"address": "서울 강서구 강서로 46길 47 동산빌딩 지하 1층",
		"url": "https://naver.me/GAiBG98y",
		"studio": 1,
		"booth": 0,
		"lng": 126.8391,
		"lat": 37.55089
	},
	{
		"brand": "",
		"name": "시선",
		"contact": "070-7766-9989",
		"address": "서울 강서구 마곡중앙 6로 89 3층",
		"url": "https://naver.me/FbuNzsah",
		"studio": 1,
		"booth": 0,
		"lng": 126.8373,
		"lat": 37.56017
	},
	{
		"brand": "",
		"name": "오늘, 우리",
		"contact": "0506-753-1618",
		"address": "서울 강서구 공항대로 237 마곡에이스타워 10층",
		"url": "https://naver.me/FLDtRT1P",
		"studio": 1,
		"booth": 0,
		"lng": 126.833,
		"lat": 37.55887
	},
	{
		"brand": "",
		"name": "언제나리즈",
		"contact": "010-3032-1886",
		"address": "서울 강서구 공항대로 247 퀸즈파크나인 A동 11층",
		"url": "https://naver.me/5eFl861C",
		"studio": 1,
		"booth": 0,
		"lng": 126.8352,
		"lat": 37.55931
	},
	{
		"brand": "",
		"name": "그날을 담다",
		"contact": "0507-1323-7752",
		"address": "서울 강서구 마곡중앙 6로 42 사이언스타 4층",
		"url": "https://naver.me/FzHr7hQC",
		"studio": 1,
		"booth": 0,
		"lng": 126.8321,
		"lat": 37.56011
	},
	{
		"brand": "",
		"name": "포토베어",
		"contact": "0507-1326-8732",
		"address": "서울 강서구 마곡중앙로 161-11 제에이",
		"url": "https://naver.me/5kqzpT2M",
		"studio": 0,
		"booth": 1,
		"lng": 126.8267,
		"lat": 37.56798
	},
	{
		"brand": "",
		"name": "포토플레이스",
		"contact": "0507-1357-1881",
		"address": "서울 강서구 마곡중앙로 171 2층",
		"url": "https://naver.me/585I8imA",
		"studio": 1,
		"booth": 0,
		"lng": 126.8278,
		"lat": 37.56903
	},
	{
		"brand": "",
		"name": "놈코어",
		"contact": "0507-1336-7332",
		"address": "서울 강서구 마곡서로 152 B동 2층",
		"url": "https://naver.me/5lZ7HC9n",
		"studio": 1,
		"booth": 0,
		"lng": 126.8256,
		"lat": 37.56775
	},
	{
		"brand": "",
		"name": "아트포유",
		"contact": "010-6839-1758",
		"address": "서울 강서구 마곡서로 152",
		"url": "https://naver.me/xv0LJyzm",
		"studio": 1,
		"booth": 0,
		"lng": 126.8256,
		"lat": 37.56775
	},
	{
		"brand": "",
		"name": "이투디오",
		"contact": "0507-1361-7148",
		"address": "서울 구로구 공원로 6나길 49-15",
		"url": "https://naver.me/F2v8L6hF",
		"studio": 1,
		"booth": 0,
		"lng": 126.8919,
		"lat": 37.50522
	},
	{
		"brand": "",
		"name": "디어모노",
		"contact": "010-8479-8040",
		"address": "서울 구로구 공원로 3 선경오피스텔 12층",
		"url": "https://naver.me/GUQfe7vM",
		"studio": 1,
		"booth": 0,
		"lng": 126.8923,
		"lat": 37.4977
	},
	{
		"brand": "",
		"name": "메멘토",
		"contact": "0507-1395-9225",
		"address": "서울 구로구 시흥대로 545-1 3층",
		"url": "https://naver.me/xQONZOIo",
		"studio": 1,
		"booth": 0,
		"lng": 126.9003,
		"lat": 37.48196
	},
	{
		"brand": "",
		"name": "인생촬영소",
		"contact": "0507-1374-1370",
		"address": "서울 금천구 시흥대로104길 19 1층",
		"url": "https://naver.me/FEd2nhfe",
		"studio": 1,
		"booth": 0,
		"lng": 126.8989,
		"lat": 37.46473
	},
	{
		"brand": "",
		"name": "커즈",
		"contact": "0507-1384-7660",
		"address": "서울 마포구 성미산로 78 3층",
		"url": "https://naver.me/x7vrguRK",
		"studio": 1,
		"booth": 0,
		"lng": 126.9166,
		"lat": 37.5603
	},
	{
		"brand": "",
		"name": "재희의 셀피",
		"contact": "070-4409-0917",
		"address": "서울 마포구 포은로 108 3층",
		"url": "https://naver.me/xyJkGhzx",
		"studio": 1,
		"booth": 0,
		"lng": 126.9048,
		"lat": 37.55667
	},
	{
		"brand": "",
		"name": "포토매점",
		"contact": "0507-1324-7847",
		"address": "서울 마포구 월드컵로15길 67",
		"url": "https://naver.me/IxbqPwk6",
		"studio": 1,
		"booth": 0,
		"lng": 126.9077,
		"lat": 37.55406
	},
	{
		"brand": "",
		"name": "RGB 포토",
		"contact": "070-8778-0000",
		"address": "서울 마포구 독막로2길 27",
		"url": "https://naver.me/GoBP7pY5",
		"studio": 0,
		"booth": 1,
		"lng": 126.9147,
		"lat": 37.54734
	},
	{
		"brand": "",
		"name": "3PIC",
		"contact": "0507-1334-4051",
		"address": "서울 마포구 어울마당로 52-1",
		"url": "https://naver.me/5LoPPn9I",
		"studio": 0,
		"booth": 1,
		"lng": 126.9211,
		"lat": 37.54969
	},
	{
		"brand": "",
		"name": "파스텔필름",
		"contact": "0506-430-1605",
		"address": "서울 마포구 어울마당로 5길 28",
		"url": "https://naver.me/xXP97lcA",
		"studio": 0,
		"booth": 1,
		"lng": 126.9191,
		"lat": 37.54963
	},
	{
		"brand": "",
		"name": "밀라",
		"contact": "0507-1375-8550",
		"address": "서울 마포구 동교로 18길 8",
		"url": "https://naver.me/Fn2izsIx",
		"studio": 1,
		"booth": 0,
		"lng": 126.9166,
		"lat": 37.55461
	},
	{
		"brand": "",
		"name": "포토치노",
		"contact": "0507-1391-4472",
		"address": "서울 마포구 양화로 193 2층",
		"url": "https://naver.me/GWFq8vBD",
		"studio": 1,
		"booth": 0,
		"lng": 126.9259,
		"lat": 37.55885
	},
	{
		"brand": "",
		"name": "자아도취",
		"contact": "0507-1422-0501",
		"address": "서울 마포구 연남로 10 3층",
		"url": "https://naver.me/5NdqxqJU",
		"studio": 1,
		"booth": 0,
		"lng": 126.9234,
		"lat": 37.56073
	},
	{
		"brand": "",
		"name": "포테이토",
		"contact": "0507-1492-6673",
		"address": "서울 마포구 동교로 34길 8 3층",
		"url": "https://naver.me/xv0LQTeK",
		"studio": 1,
		"booth": 0,
		"lng": 126.9248,
		"lat": 37.56093
	},
	{
		"brand": "",
		"name": "7페이지",
		"contact": "0507-1497-0220",
		"address": "서울 마포구 동교로 242-5 3층",
		"url": "https://naver.me/5CzpJKWn",
		"studio": 1,
		"booth": 0,
		"lng": 126.9247,
		"lat": 37.56151
	},
	{
		"brand": "",
		"name": "플랜비",
		"contact": "0507-1379-0270",
		"address": "서울 마포구 동교로 38길 29",
		"url": "https://naver.me/F7xcCxKF",
		"studio": 0,
		"booth": 1,
		"lng": 126.9257,
		"lat": 37.56161
	},
	{
		"brand": "",
		"name": "셀피스트",
		"contact": "0507-1487-3410",
		"address": "서울 마포구 동교로 46길 10 3층",
		"url": "https://naver.me/5h3IVLCc",
		"studio": 1,
		"booth": 0,
		"lng": 126.9253,
		"lat": 37.56254
	},
	{
		"brand": "",
		"name": "러브유어셀프",
		"contact": "0507-1433-0444",
		"address": "서울 용산구 두텁바위로 9-1 2층",
		"url": "https://naver.me/xGORcKci",
		"studio": 1,
		"booth": 0,
		"lng": 126.9733,
		"lat": 37.54539
	},
	{
		"brand": "",
		"name": "당신을사랑하는카메라",
		"contact": "0507-1393-2558",
		"address": "서울 용산구 녹사평대로 40나길 22 4층",
		"url": "https://naver.me/5mYgedws",
		"studio": 1,
		"booth": 0,
		"lng": 126.9885,
		"lat": 37.53538
	},
	{
		"brand": "",
		"name": "픽부스터",
		"contact": "0507-1439-7765",
		"address": "서울 용산구 이태원로 42길 50 지하 1층",
		"url": "https://naver.me/5LAxWcAE",
		"studio": 1,
		"booth": 0,
		"lng": 127.0011,
		"lat": 37.53671
	},
	{
		"brand": "",
		"name": "소더 셀피",
		"contact": "0507-1344-4172",
		"address": "서울 용산구 녹사평대로 32길 47 5층",
		"url": "https://naver.me/5JJGKDlQ",
		"studio": 1,
		"booth": 0,
		"lng": 126.9908,
		"lat": 37.53273
	},
	{
		"brand": "",
		"name": "플랜비",
		"contact": "1577-4392",
		"address": "서울 성동구 마조로1길 36",
		"url": "https://naver.me/Fnv9qWKS",
		"studio": 1,
		"booth": 0,
		"lng": 127.0395,
		"lat": 37.56058
	},
	{
		"brand": "",
		"name": "구릴라",
		"contact": "0507-1366-0338",
		"address": "서울 성동구 왕십리로 231",
		"url": "https://naver.me/GfaMSyAe",
		"studio": 1,
		"booth": 0,
		"lng": 127.0417,
		"lat": 37.55736
	},
	{
		"brand": "",
		"name": "셀프레임",
		"contact": "0507-1498-7571",
		"address": "서울 성동구 성수이로 14길 5 지하 1층",
		"url": "https://naver.me/GdJqmuGL",
		"studio": 1,
		"booth": 0,
		"lng": 127.0563,
		"lat": 37.54109
	},
	{
		"brand": "",
		"name": "포토포레",
		"contact": "0507-1319-9380",
		"address": "서울 성동구 성수일로 3길 4-6 지하 1층",
		"url": "https://naver.me/FH7UJ4fy",
		"studio": 1,
		"booth": 0,
		"lng": 127.0483,
		"lat": 37.54228
	},
	{
		"brand": "",
		"name": "포즐",
		"contact": "0507-1477-4279",
		"address": "서울 성동구 연무장 5가길 7",
		"url": "https://naver.me/5EkGNvcs",
		"studio": 1,
		"booth": 0,
		"lng": 127.0537,
		"lat": 37.54408
	},
	{
		"brand": "",
		"name": "아날로그에이",
		"contact": "0507-1496-7768",
		"address": "서울 성동구 아차산로 5길 24-45 2층",
		"url": "https://naver.me/xQO8Oz9H",
		"studio": 1,
		"booth": 0,
		"lng": 127.0543,
		"lat": 37.54715
	},
	{
		"brand": "",
		"name": "룩히얼",
		"contact": "0507-1330-1618",
		"address": "서울 도봉구 도봉로 110바길 18 지하 1층",
		"url": "https://naver.me/FkPS1oVP",
		"studio": 1,
		"booth": 0,
		"lng": 127.0375,
		"lat": 37.64714
	},
	{
		"brand": "",
		"name": "에이그래피",
		"contact": "0507-1335-0042",
		"address": "서울 도봉구 우이천로 24길 40",
		"url": "https://naver.me/5FeZEd6i",
		"studio": 1,
		"booth": 0,
		"lng": 127.0318,
		"lat": 37.64514
	},
	{
		"brand": "",
		"name": "이루하루",
		"contact": "0507-1332-3795",
		"address": "서울 도봉구 도봉로 125길 57 2층",
		"url": "https://naver.me/xxpiS4GI",
		"studio": 1,
		"booth": 0,
		"lng": 127.0366,
		"lat": 37.65522
	},
	{
		"brand": "",
		"name": "생쇼",
		"contact": "010-8675-6518",
		"address": "서울 강북구 도봉로 67길 21",
		"url": "https://naver.me/xw6gjZKH",
		"studio": 1,
		"booth": 0,
		"lng": 127.0231,
		"lat": 37.63035
	},
	{
		"brand": "",
		"name": "포토무드",
		"contact": "0507-1342-7341",
		"address": "서울 강북구 도봉로 342",
		"url": "https://naver.me/FkPS1oVP",
		"studio": 0,
		"booth": 1,
		"lng": 127.0261,
		"lat": 37.63804
	},
	{
		"brand": "",
		"name": "밤스튜디오",
		"contact": "0507-1470-1350",
		"address": "서울 성북구 오패산로 79-7",
		"url": "https://naver.me/FyeunEVc",
		"studio": 1,
		"booth": 0,
		"lng": 127.0354,
		"lat": 37.60909
	},
	{
		"brand": "",
		"name": "낭만포토",
		"contact": "0507-1317-4051",
		"address": "서울 노원구 상계로 91 3층",
		"url": "https://naver.me/5BxpPiAK",
		"studio": 1,
		"booth": 0,
		"lng": 127.065,
		"lat": 37.6569
	},
	{
		"brand": "",
		"name": "조군",
		"contact": "0507-1360-8550",
		"address": "서울 노원구 상계로 7길 22 상가 2층",
		"url": "https://naver.me/GEAdsqfD",
		"studio": 1,
		"booth": 0,
		"lng": 127.065,
		"lat": 37.65777
	},
	{
		"brand": "",
		"name": "흑백무드",
		"contact": "0507-1342-9074",
		"address": "서울 노원구 동일로 192길 56 3층",
		"url": "https://naver.me/Fbu4p9qT",
		"studio": 1,
		"booth": 0,
		"lng": 127.076,
		"lat": 37.62669
	},
	{
		"brand": "",
		"name": "을지로운",
		"contact": "0507-1368-7953",
		"address": "서울 중구 을지로 114-6 2층",
		"url": "https://naver.me/FWvpp5Kc",
		"studio": 1,
		"booth": 0,
		"lng": 126.9906,
		"lat": 37.56584
	},
	{
		"brand": "",
		"name": "광각도시",
		"contact": "0507-1381-8618",
		"address": "서울 중구 을지로 20길 20 3층",
		"url": "https://naver.me/Fmgwjmxg",
		"studio": 1,
		"booth": 0,
		"lng": 126.9953,
		"lat": 37.56555
	},
	{
		"brand": "",
		"name": "스펑키",
		"contact": "02-6369-5151",
		"address": "서울 중구 퇴계로 32길 20 2층",
		"url": "https://naver.me/FaZyeI2X",
		"studio": 1,
		"booth": 0,
		"lng": 126.9925,
		"lat": 37.56009
	},
	{
		"brand": "",
		"name": "베스나",
		"contact": "02-1412-1891",
		"address": "서울 중구 다산로 32길 15 지하 1층",
		"url": "https://naver.me/FCbVqUBQ",
		"studio": 1,
		"booth": 0,
		"lng": 127.0155,
		"lat": 37.56111
	},
	{
		"brand": "",
		"name": "아워픽스",
		"contact": "02-6052-0154",
		"address": "서울 중구 다산로 33가길 26",
		"url": "https://naver.me/Gi9ff0Uy",
		"studio": 1,
		"booth": 0,
		"lng": 127.0146,
		"lat": 37.56332
	},
	{
		"brand": "",
		"name": "아미스타",
		"contact": "0507-1366-9204",
		"address": "서울 종로구 창신 4가길 12",
		"url": "https://naver.me/FEJoP1d0",
		"studio": 1,
		"booth": 0,
		"lng": 127.0104,
		"lat": 37.57426
	},
	{
		"brand": "",
		"name": "포토메카",
		"contact": "0507-1382-7580",
		"address": "서울 종로구 대학로 11길 22",
		"url": "https://naver.me/52lhVM6m",
		"studio": 1,
		"booth": 0,
		"lng": 127.0004,
		"lat": 37.58234
	},
	{
		"brand": "",
		"name": "SISPIC",
		"contact": "0507-1333-6753",
		"address": "서울 종로구 돈화문로 15 3층",
		"url": "https://naver.me/FKKxgpfx",
		"studio": 1,
		"booth": 0,
		"lng": 126.992,
		"lat": 37.56993
	},
	{
		"brand": "",
		"name": "모멘트파이브",
		"contact": "0507-1338-8739",
		"address": "서울 종로구 종로 72-1 5층",
		"url": "https://naver.me/5vMpSLKY",
		"studio": 1,
		"booth": 0,
		"lng": 126.9855,
		"lat": 37.56995
	},
	{
		"brand": "",
		"name": "기억사진관",
		"contact": "010-2066-2532",
		"address": "서울 종로구 돈화문로 11나길 20",
		"url": "https://naver.me/FfMkDqVg",
		"studio": 1,
		"booth": 0,
		"lng": 126.9906,
		"lat": 37.57368
	},
	{
		"brand": "",
		"name": "페이지오브",
		"contact": "0507-1366-1073",
		"address": "서울 종로구 율곡로 67 2층",
		"url": "https://naver.me/5Q4GFBf2",
		"studio": 1,
		"booth": 0,
		"lng": 126.9866,
		"lat": 37.5773
	},
	{
		"brand": "",
		"name": "정사진",
		"contact": "0507-1320-0828",
		"address": "서울 종로구 창덕궁 1길 41 2층",
		"url": "https://naver.me/FR1IeJma",
		"studio": 1,
		"booth": 0,
		"lng": 126.9868,
		"lat": 37.57926
	},
	{
		"brand": "",
		"name": "북촌사진관",
		"contact": "0507-1344-7766",
		"address": "서울 종로구 윤보선길 65 지하층",
		"url": "https://naver.me/FjojouQE",
		"studio": 1,
		"booth": 0,
		"lng": 126.9831,
		"lat": 37.57884
	},
	{
		"brand": "",
		"name": "데이",
		"contact": "0507-1347-3548",
		"address": "서울 광진구 능동로 3가길 4",
		"url": "https://naver.me/5Tv3PCpf",
		"studio": 1,
		"booth": 0,
		"lng": 127.066,
		"lat": 37.53364
	},
	{
		"brand": "",
		"name": "크레파스",
		"contact": "0507-1343-6935",
		"address": "서울 광진구 뚝섬로 56길 14 지하1층",
		"url": "https://naver.me/x9JcBm6A",
		"studio": 1,
		"booth": 0,
		"lng": 127.0824,
		"lat": 37.53085
	},
	{
		"brand": "",
		"name": "미몽",
		"contact": "0507-1334-4368",
		"address": "서울 광진구 뚝섬로 476-14",
		"url": "https://naver.me/GmFpApnE",
		"studio": 1,
		"booth": 0,
		"lng": 127.0623,
		"lat": 37.53659
	},
	{
		"brand": "",
		"name": "데일리로그",
		"contact": "0507-1494-8608",
		"address": "서울 광진구 군자로 10길 20 지하 1층",
		"url": "https://naver.me/5Y1NtKuw",
		"studio": 1,
		"booth": 0,
		"lng": 127.0719,
		"lat": 37.54885
	},
	{
		"brand": "",
		"name": "90사진관",
		"contact": "0507-1376-2095",
		"address": "서울 중랑구 사가정로 423-2",
		"url": "https://naver.me/5SWSuvrq",
		"studio": 1,
		"booth": 0,
		"lng": 127.0919,
		"lat": 37.58067
	},
	{
		"brand": "",
		"name": "조이",
		"contact": "010-8450-9203",
		"address": "서울 중랑구 중랑역로 51 3층",
		"url": "https://naver.me/GN8demdN",
		"studio": 1,
		"booth": 0,
		"lng": 127.0769,
		"lat": 37.59838
	},
	{
		"brand": "",
		"name": "스튜디오813",
		"contact": "0507-1326-8675",
		"address": "서울 중랑구 동일로 813 2층",
		"url": "https://naver.me/xL1fWNlf",
		"studio": 1,
		"booth": 0,
		"lng": 127.0789,
		"lat": 37.60298
	},
	{
		"brand": "",
		"name": "청춘",
		"contact": "010-4081-6848",
		"address": "서울 중랑구 망우로 328 12층",
		"url": "https://naver.me/F7xuoVtH",
		"studio": 1,
		"booth": 0,
		"lng": 127.089,
		"lat": 37.59683
	},
	{
		"brand": "",
		"name": "프롤로그",
		"contact": "02-433-0331",
		"address": "서울 중랑구 신내로 50-3 지하 1층",
		"url": "https://naver.me/Gfoz4lzE",
		"studio": 1,
		"booth": 0,
		"lng": 127.096,
		"lat": 37.60373
	},
	{
		"brand": "",
		"name": "오늘함께",
		"contact": "0507-1383-3824",
		"address": "서울 중랑구 신내역로 3길 40-36 A동 9층",
		"url": "https://naver.me/GHEcFNnR",
		"studio": 1,
		"booth": 0,
		"lng": 127.104,
		"lat": 37.6176
	},
	{
		"brand": "",
		"name": "원포토",
		"contact": "0507-1367-1247",
		"address": "서울 동대문구 회기로 138",
		"url": "https://naver.me/5BxpfpUB",
		"studio": 1,
		"booth": 0,
		"lng": 127.0518,
		"lat": 37.59113
	},
	{
		"brand": "",
		"name": "유어셔터",
		"contact": "0507-1381-1090",
		"address": "서울 동대문구 회기로 25길 59 지하1층",
		"url": "https://naver.me/F1IMRHQV",
		"studio": 1,
		"booth": 0,
		"lng": 127.0568,
		"lat": 37.59243
	},
	{
		"brand": "",
		"name": "This is me",
		"contact": "02-967-3347",
		"address": "서울 동대문구 망우로 1길 40",
		"url": "https://naver.me/FOvhUcYe",
		"studio": 1,
		"booth": 0,
		"lng": 127.0562,
		"lat": 37.58908
	},
	{
		"brand": "",
		"name": "능수",
		"contact": "0507-1443-9965",
		"address": "서울 서대문구 북아현로14길 27",
		"url": "https://naver.me/GdJ86jhA",
		"studio": 1,
		"booth": 0,
		"lng": 126.957,
		"lat": 37.56315
	},
	{
		"brand": "",
		"name": "원더셀프",
		"contact": "02-332-2084",
		"address": "서울 서대문구 연세로 25-1 3층",
		"url": "https://naver.me/5cDWLXkS",
		"studio": 1,
		"booth": 0,
		"lng": 126.9367,
		"lat": 37.55797
	},
	{
		"brand": "",
		"name": "조이풀",
		"contact": "0507-1338-3118",
		"address": "서울 은평구 수색로 217",
		"url": "https://naver.me/FaZPJWOJ",
		"studio": 1,
		"booth": 0,
		"lng": 126.8986,
		"lat": 37.57952
	},
	{
		"brand": "",
		"name": "미구포토",
		"contact": "0507-1334-8160",
		"address": "서울 은평구 증산로 17길 33-1",
		"url": "https://naver.me/5izxlYNB",
		"studio": 1,
		"booth": 0,
		"lng": 126.9096,
		"lat": 37.59075
	},
	{
		"brand": "",
		"name": "엘림",
		"contact": "0507-1429-7007",
		"address": "서울 은평구 녹번로 12 2층",
		"url": "https://naver.me/F6mbs8jS",
		"studio": 1,
		"booth": 0,
		"lng": 126.9273,
		"lat": 37.6032
	},
	{
		"brand": "",
		"name": "트램필름",
		"contact": "0507-1359-3611",
		"address": "서울 은평구 진흥로 68 4층",
		"url": "https://naver.me/GLK3npHV",
		"studio": 1,
		"booth": 0,
		"lng": 126.9217,
		"lat": 37.60301
	},
	{
		"brand": "",
		"name": "라우",
		"contact": "0507-1410-1895",
		"address": "서울 은평구 서오릉로 149-17 지하 1층",
		"url": "https://naver.me/580Sx7Tk",
		"studio": 1,
		"booth": 0,
		"lng": 126.9162,
		"lat": 37.61079
	},
	{
		"brand": "",
		"name": "포토프렌즈",
		"contact": "0507-1319-1182",
		"address": "서울 은평구 통일로 855-15",
		"url": "https://naver.me/5VAnkl6K",
		"studio": 0,
		"booth": 1,
		"lng": 126.9198,
		"lat": 37.61925
	},
	{
		"brand": "흑백사장",
		"name": "파주",
		"contact": "010-7649-4969",
		"address": "경기 파주시 소리천로 25 A구역 10층",
		"url": "https://naver.me/FZJ9u37m",
		"studio": 1,
		"booth": 0,
		"lng": 126.7613,
		"lat": 37.71463
	},
	{
		"brand": "흑백사장",
		"name": "성신여대",
		"contact": "070-8751-2995",
		"address": "서울 성북구 보문로 30라길 28",
		"url": "https://naver.me/GKovb4OM",
		"studio": 1,
		"booth": 0,
		"lng": 127.0182,
		"lat": 37.58967
	},
	{
		"brand": "흑백사장",
		"name": "샤로수길",
		"contact": "010-7724-1707",
		"address": "서울 관악구 남부순환로 226길 23-10",
		"url": "https://naver.me/GyeyjXEd",
		"studio": 1,
		"booth": 0,
		"lng": 126.9542,
		"lat": 37.47932
	},
	{
		"brand": "흑백사장",
		"name": "안산",
		"contact": "010-2403-4706",
		"address": "경기 안산시 단원구 예술대학로 17 7층",
		"url": "https://naver.me/IFjpIABp",
		"studio": 1,
		"booth": 0,
		"lng": 126.8365,
		"lat": 37.31868
	},
	{
		"brand": "흑백사장",
		"name": "수원",
		"contact": "031-222-2995",
		"address": "경기 수원시 팔달구 권광로180번길 18-11",
		"url": "https://naver.me/Goz5XbK1",
		"studio": 1,
		"booth": 0,
		"lng": 127.0338,
		"lat": 37.26278
	},
	{
		"brand": "흑백사장",
		"name": "청주",
		"contact": "070-4110-1553",
		"address": "충북 청주시 흥덕구 대농로 33 2층",
		"url": "https://naver.me/FDQjThTu",
		"studio": 1,
		"booth": 0,
		"lng": 127.4259,
		"lat": 36.64245
	},
	{
		"brand": "흑백사장",
		"name": "씨원리조트",
		"contact": "0507-1362-6875",
		"address": "전남 신안군 자은면 자은서부1길 163-101 2층",
		"url": "https://naver.me/xeUmlEp0",
		"studio": 1,
		"booth": 0,
		"lng": 126.0408,
		"lat": 34.85022
	},
	{
		"brand": "흑백사장",
		"name": "부산서면",
		"contact": "010-7696-4720",
		"address": "부산 부산진구 동천로 71 6층",
		"url": "https://naver.me/G3KPhhFK",
		"studio": 1,
		"booth": 0,
		"lng": 129.0621,
		"lat": 35.15507
	},
	{
		"brand": "흑백사장 더필름",
		"name": "성신여대",
		"contact": "0507-1317-6261",
		"address": "서울 성북구 동소문로 22길 43",
		"url": "https://naver.me/5ObPxqIt",
		"studio": 0,
		"booth": 1,
		"lng": 127.0184,
		"lat": 37.59123
	},
	{
		"brand": "흑백사장 더필름",
		"name": "북촌",
		"contact": "0507-1334-2778",
		"address": "서울 종로구 삼청로 67",
		"url": "https://naver.me/xrykhZLV",
		"studio": 0,
		"booth": 1,
		"lng": 126.9811,
		"lat": 37.58167
	},
	{
		"brand": "흑백사장 더필름",
		"name": "연남",
		"contact": "0507-1325-0724",
		"address": "서울 마포구 동교로 46길 27",
		"url": "https://naver.me/5Gz6oRa2",
		"studio": 0,
		"booth": 1,
		"lng": 126.9263,
		"lat": 37.56228
	},
	{
		"brand": "흑백사장 더필름",
		"name": "미사",
		"contact": "0507-1488-1028",
		"address": "경기 하남시 미사강변동로 85",
		"url": "https://naver.me/GNBa0eU9",
		"studio": 0,
		"booth": 1,
		"lng": 127.1922,
		"lat": 37.56267
	},
	{
		"brand": "흑백사장 더필름",
		"name": "성수",
		"contact": "0507-1331-4632",
		"address": "서울 성동구 연무장길 29-1",
		"url": "https://naver.me/57XoJyYX",
		"studio": 0,
		"booth": 1,
		"lng": 127.0527,
		"lat": 37.54335
	},
	{
		"brand": "흑백사장 더필름",
		"name": "가로수길",
		"contact": "0507-1363-6875",
		"address": "서울 강남구 압구정로 2길 53",
		"url": "https://naver.me/Fql82MOR",
		"studio": 0,
		"booth": 1,
		"lng": 127.0214,
		"lat": 37.51847
	},
	{
		"brand": "흑백사장 더필름",
		"name": "인천부평",
		"contact": "0507-1332-6607",
		"address": "인천 부평구 부평대로 32번길",
		"url": "https://naver.me/x4aBybZ8",
		"studio": 0,
		"booth": 1,
		"lng": 126.7239,
		"lat": 37.49437
	},
	{
		"brand": "흑백사장 더필름",
		"name": "송도",
		"contact": "0507-1422-1478",
		"address": "인천 연수구 신송로 164",
		"url": "https://naver.me/xHi7QW0U",
		"studio": 0,
		"booth": 1,
		"lng": 126.6489,
		"lat": 37.39817
	},
	{
		"brand": "흑백사장 더필름",
		"name": "범계",
		"contact": "0507-1331-2944",
		"address": "경기 안양시 동안구 평촌대로 223번길 52",
		"url": "https://naver.me/xueHBSRd",
		"studio": 0,
		"booth": 1,
		"lng": 126.9528,
		"lat": 37.39071
	},
	{
		"brand": "흑백사장 더필름",
		"name": "제천",
		"contact": "0507-1441-1157",
		"address": "충북 제천시 세명로 2길 7",
		"url": "https://naver.me/585tWWaC",
		"studio": 0,
		"booth": 1,
		"lng": 128.2048,
		"lat": 37.18131
	},
	{
		"brand": "흑백사장 더필름",
		"name": "천안",
		"contact": "0507-1330-2349",
		"address": "충남 천안시 서북구 불당21로 71",
		"url": "https://naver.me/FpmUr1IM",
		"studio": 0,
		"booth": 1,
		"lng": 127.1082,
		"lat": 36.81297
	},
	{
		"brand": "흑백사장 더필름",
		"name": "전주",
		"contact": "0507-1372-2368",
		"address": "전북 전주시 완산구 팔달로 201-5",
		"url": "https://naver.me/xVQUHQ16",
		"studio": 0,
		"booth": 1,
		"lng": 127.1457,
		"lat": 35.82014
	},
	{
		"brand": "흑백사장 더필름",
		"name": "남원",
		"contact": "0507-1394-5881",
		"address": "전북 남원시 광한북로 47",
		"url": "https://naver.me/FuWsiqyg",
		"studio": 0,
		"booth": 1,
		"lng": 127.3798,
		"lat": 35.4073
	},
	{
		"brand": "흑백사장 더필름",
		"name": "창원상남",
		"contact": "0507-1334-5085",
		"address": "경남 창원시 성산구 마디미동로 31",
		"url": "https://naver.me/5cDgWrJx",
		"studio": 0,
		"booth": 1,
		"lng": 128.6854,
		"lat": 35.22062
	},
	{
		"brand": "흑백사장 더필름",
		"name": "제주",
		"contact": "0507-1320-3490",
		"address": "제주 제주시 신성로 13길 18",
		"url": "https://naver.me/Fp1OJFI8",
		"studio": 0,
		"booth": 1,
		"lng": 126.5296,
		"lat": 33.49859
	},
	{
		"brand": "흑백공간",
		"name": "노원",
		"contact": "0507-1404-9877",
		"address": "서울 노원구 공릉로 41길 21 2층",
		"url": "https://naver.me/xaPgocFr",
		"studio": 1,
		"booth": 0,
		"lng": 127.0784,
		"lat": 37.6246
	},
	{
		"brand": "흑백공간",
		"name": "건대",
		"contact": "0507-1466-7825",
		"address": "서울 광진구 능동로 11길 8-5 3층",
		"url": "https://naver.me/5h3nzBw5",
		"studio": 1,
		"booth": 0,
		"lng": 127.071,
		"lat": 37.54219
	},
	{
		"brand": "흑백공간",
		"name": "가로수길",
		"contact": "0507-1404-4780",
		"address": "서울 강남구 논현로 161길 57 3층",
		"url": "https://naver.me/x9L3JRwV",
		"studio": 1,
		"booth": 0,
		"lng": 127.0237,
		"lat": 37.52225
	},
	{
		"brand": "흑백공간",
		"name": "강남",
		"contact": "0507-1487-5119",
		"address": "서울 강남구 강남대로 110길 12 3층",
		"url": "https://naver.me/Gp03IRRh",
		"studio": 1,
		"booth": 0,
		"lng": 127.0258,
		"lat": 37.50386
	},
	{
		"brand": "흑백공간",
		"name": "혜화",
		"contact": "0507-1401-5027",
		"address": "서울 종로구 대학로 9길 12 3층",
		"url": "https://naver.me/5Il685Xj",
		"studio": 1,
		"booth": 0,
		"lng": 127.0011,
		"lat": 37.58181
	},
	{
		"brand": "흑백공간",
		"name": "홍대",
		"contact": "0507-1372-2958",
		"address": "서울 마포구 동교로 255-1 3층",
		"url": "https://naver.me/5FeZ1uem",
		"studio": 1,
		"booth": 0,
		"lng": 126.9246,
		"lat": 37.56279
	},
	{
		"brand": "흑백공간",
		"name": "합정",
		"contact": "0507-1443-2678",
		"address": "서울 마포구 어울마당로 5길 50 3층",
		"url": "https://naver.me/GPvxAqwu",
		"studio": 1,
		"booth": 0,
		"lng": 126.9181,
		"lat": 37.55002
	},
	{
		"brand": "하프스튜디오",
		"name": "연신내",
		"contact": "0504-3220-7243",
		"address": "서울 은평구 통일로 82길 6 지하1층",
		"url": "https://naver.me/GVM3tPpi",
		"studio": 1,
		"booth": 0,
		"lng": 126.9207,
		"lat": 37.62034
	},
	{
		"brand": "하프스튜디오",
		"name": "회기",
		"contact": "0504-3220-4874",
		"address": "서울 동대문구 회기로 25길 4 3층",
		"url": "https://naver.me/GZ0y36Fu",
		"studio": 1,
		"booth": 0,
		"lng": 127.0548,
		"lat": 37.59072
	},
	{
		"brand": "하프스튜디오",
		"name": "연남",
		"contact": "0504-3220-6076",
		"address": "서울 마포구 동교로 260 지하 1층",
		"url": "https://naver.me/GxOKIy3I",
		"studio": 1,
		"booth": 0,
		"lng": 126.9252,
		"lat": 37.56287
	},
	{
		"brand": "하프스튜디오",
		"name": "영등포",
		"contact": "0504-3220-8031",
		"address": "서울 영등포구 양산로 138-1 2층",
		"url": "https://naver.me/FfMneCoA",
		"studio": 1,
		"booth": 0,
		"lng": 126.8983,
		"lat": 37.52361
	},
	{
		"brand": "하프스튜디오",
		"name": "샤로수길",
		"contact": "0504-3220-4872",
		"address": "서울 관악구 봉천로 554 지하 1층",
		"url": "https://naver.me/5QDAhaS4",
		"studio": 1,
		"booth": 0,
		"lng": 126.9591,
		"lat": 37.47794
	},
	{
		"brand": "하프스튜디오",
		"name": "압구정",
		"contact": "0504-3220-9533",
		"address": "서울 강남구 논현로 155길 30-6 지하1층",
		"url": "https://naver.me/FLDYToad",
		"studio": 1,
		"booth": 0,
		"lng": 127.0255,
		"lat": 37.52165
	},
	{
		"brand": "하프스튜디오",
		"name": "이태원",
		"contact": "0504-3220-1347",
		"address": "서울 용산구 이태원로 20길 22 지하1층",
		"url": "https://naver.me/FzILtaLa",
		"studio": 1,
		"booth": 0,
		"lng": 126.9922,
		"lat": 37.53338
	},
	{
		"brand": "하마필름",
		"name": "광주",
		"contact": "정보 없음",
		"address": "광주 광산구 용아로 379번길 39",
		"url": "https://naver.me/FMwSZ3Cb",
		"studio": 0,
		"booth": 1,
		"lng": 126.8022,
		"lat": 35.17649
	},
	{
		"brand": "하마필름",
		"name": "신정네거리역",
		"contact": "0507-1484-3458",
		"address": "서울 양천구 중앙로 251",
		"url": "https://naver.me/5y078Zco",
		"studio": 0,
		"booth": 1,
		"lng": 126.8532,
		"lat": 37.51872
	},
	{
		"brand": "하마필름",
		"name": "석계",
		"contact": "0507-1347-6702",
		"address": "서울 노원구 화랑로 335",
		"url": "https://naver.me/GmVNaX32",
		"studio": 0,
		"booth": 1,
		"lng": 127.065,
		"lat": 37.6151
	},
	{
		"brand": "하마필름",
		"name": "일산덕이동",
		"contact": "정보 없음",
		"address": "경기 고양시 일산서구 하이파크 3로 78번길 1 2층",
		"url": "https://naver.me/xvLFRhJb",
		"studio": 0,
		"booth": 1,
		"lng": 126.7532,
		"lat": 37.69866
	},
	{
		"brand": "하마필름",
		"name": "인천연수",
		"contact": "정보 없음",
		"address": "인천 연수구 청능대로 113번길 41 3층",
		"url": "https://naver.me/Gpev7DED",
		"studio": 0,
		"booth": 1,
		"lng": 126.6781,
		"lat": 37.41412
	},
	{
		"brand": "하마필름",
		"name": "인천옥련",
		"contact": "정보 없음",
		"address": "인천 연수구 독배로 35 2층",
		"url": "https://naver.me/FCBivkeu",
		"studio": 0,
		"booth": 1,
		"lng": 126.6444,
		"lat": 37.42391
	},
	{
		"brand": "하마필름",
		"name": "호평알프하임",
		"contact": "정보 없음",
		"address": "경기 남양주시 백봉로 32 상가 A동",
		"url": "https://naver.me/5FZuoKwz",
		"studio": 0,
		"booth": 1,
		"lng": 127.2547,
		"lat": 37.6508
	},
	{
		"brand": "하마필름",
		"name": "수원인계",
		"contact": "정보 없음",
		"address": "경기 수원시 팔달구 권광로 187번길 24 3층",
		"url": "https://naver.me/GmVA0Ova",
		"studio": 0,
		"booth": 1,
		"lng": 127.0317,
		"lat": 37.26485
	},
	{
		"brand": "하루필름",
		"name": "부산 동래",
		"contact": "정보 없음",
		"address": "부산 동래구 온천천로 165",
		"url": "https://naver.me/FZqT5UuA",
		"studio": 0,
		"booth": 1,
		"lng": 129.079,
		"lat": 35.20471
	},
	{
		"brand": "하루필름",
		"name": "부산대",
		"contact": "정보 없음",
		"address": "부산 금정구 금정로 68번길 11",
		"url": "https://naver.me/Fx4qNaVl",
		"studio": 0,
		"booth": 1,
		"lng": 129.0871,
		"lat": 35.23071
	},
	{
		"brand": "하루필름",
		"name": "대전 대덕",
		"contact": "0507-1314-9796",
		"address": "대전 대덕구 송촌북로 16번길 45",
		"url": "https://naver.me/5EWS4ZhI",
		"studio": 0,
		"booth": 1,
		"lng": 127.4389,
		"lat": 36.36479
	},
	{
		"brand": "하루필름",
		"name": "수원",
		"contact": "0507-1387-3007",
		"address": "경기 수원시 팔달구 향교로 34",
		"url": "https://naver.me/FwkGaU0p",
		"studio": 0,
		"booth": 1,
		"lng": 127.0046,
		"lat": 37.26862
	},
	{
		"brand": "하루필름",
		"name": "산본",
		"contact": "정보 없음",
		"address": "경기 군포시 산본로 323번길 16-29",
		"url": "https://naver.me/G8mrjPgE",
		"studio": 0,
		"booth": 1,
		"lng": 126.9312,
		"lat": 37.35993
	},
	{
		"brand": "하루필름",
		"name": "시흥배곧",
		"contact": "0506-022-0412",
		"address": "경기 시흥시 서울대학로 278번길 34",
		"url": "https://naver.me/GA1Q9DIA",
		"studio": 0,
		"booth": 1,
		"lng": 126.7289,
		"lat": 37.36822
	},
	{
		"brand": "하루필름",
		"name": "분당서현",
		"contact": "정보 없음",
		"address": "경기 성남시 분당구 황새울로 360번길 26",
		"url": "https://naver.me/5y05mTek",
		"studio": 0,
		"booth": 1,
		"lng": 127.125,
		"lat": 37.38588
	},
	{
		"brand": "하루필름",
		"name": "안양1번가",
		"contact": "031-844-1470",
		"address": "경기 안양시 만안구 안양로 292번길 21",
		"url": "https://naver.me/5VoUVZD8",
		"studio": 0,
		"booth": 1,
		"lng": 126.9229,
		"lat": 37.39905
	},
	{
		"brand": "하루필름",
		"name": "범계",
		"contact": "0507-1324-5707",
		"address": "경기 안양시 동안구 평촌대로 223번길 55",
		"url": "https://naver.me/FuVkMRiR",
		"studio": 0,
		"booth": 1,
		"lng": 126.9528,
		"lat": 37.39027
	},
	{
		"brand": "하루필름",
		"name": "의정부",
		"contact": "0507-1426-3262",
		"address": "경기 의정부시 태평로 73번길 56",
		"url": "https://naver.me/5ZR4IsiU",
		"studio": 0,
		"booth": 1,
		"lng": 127.0484,
		"lat": 37.73912
	},
	{
		"brand": "하루필름",
		"name": "라페스타",
		"contact": "0507-1315-5781",
		"address": "경기 고양시 일산동구 중앙로 1305-56 라페스타 E동",
		"url": "https://naver.me/5g3WYvTg",
		"studio": 0,
		"booth": 1,
		"lng": 126.7683,
		"lat": 37.66103
	},
	{
		"brand": "하루필름",
		"name": "노원",
		"contact": "0507-1496-3526",
		"address": "서울 노원구 상계로 70",
		"url": "https://naver.me/xvE3jaDh",
		"studio": 0,
		"booth": 1,
		"lng": 127.0628,
		"lat": 37.65601
	},
	{
		"brand": "하루필름",
		"name": "수유",
		"contact": "02-122-2222",
		"address": "서울 강북구 노해로 8길 29",
		"url": "https://naver.me/IGmgryqm",
		"studio": 0,
		"booth": 1,
		"lng": 127.0242,
		"lat": 37.63852
	},
	{
		"brand": "하루필름",
		"name": "연신내",
		"contact": "0507-1365-4338",
		"address": "서울 은평구 연서로 29길 14",
		"url": "https://naver.me/FWv3CvsV",
		"studio": 0,
		"booth": 1,
		"lng": 126.9188,
		"lat": 37.61915
	},
	{
		"brand": "하루필름",
		"name": "구리수택",
		"contact": "0507-1484-0234",
		"address": "경기 구리시 경춘로 218-5",
		"url": "https://naver.me/F31NXkrb",
		"studio": 0,
		"booth": 1,
		"lng": 127.1398,
		"lat": 37.60003
	},
	{
		"brand": "하루필름",
		"name": "경희대",
		"contact": "0507-1355-2490",
		"address": "서울 동대문구 회기로 151",
		"url": "https://naver.me/FIpEe92Z",
		"studio": 0,
		"booth": 1,
		"lng": 127.0533,
		"lat": 37.5914
	},
	{
		"brand": "하루필름",
		"name": "성신여대",
		"contact": "정보 없음",
		"address": "서울 성북구 보문로 34길 87",
		"url": "https://naver.me/5pNv1bxL",
		"studio": 0,
		"booth": 1,
		"lng": 127.0202,
		"lat": 37.59148
	},
	{
		"brand": "하루필름",
		"name": "익선",
		"contact": "0507-1497-1328",
		"address": "서울 종로구 수표로 28길 21-4",
		"url": "https://naver.me/x8gMDlqI",
		"studio": 0,
		"booth": 1,
		"lng": 126.9898,
		"lat": 37.57311
	},
	{
		"brand": "하루필름",
		"name": "안국",
		"contact": "0507-1491-8766",
		"address": "서울 종로구 북촌로 5길 24",
		"url": "https://naver.me/5kNZbX3l",
		"studio": 0,
		"booth": 1,
		"lng": 126.9836,
		"lat": 37.57953
	},
	{
		"brand": "하루필름",
		"name": "마로니에",
		"contact": "0507-1367-9812",
		"address": "서울 종로구 대학로 8가길 93",
		"url": "https://naver.me/5dZDjxus",
		"studio": 0,
		"booth": 1,
		"lng": 127.0035,
		"lat": 37.58185
	},
	{
		"brand": "하루필름",
		"name": "혜화소나무길",
		"contact": "0507-1372-7137",
		"address": "서울 종로구 대학로 11길 36",
		"url": "https://naver.me/IGGTU1OZ",
		"studio": 0,
		"booth": 1,
		"lng": 126.9998,
		"lat": 37.58235
	},
	{
		"brand": "하루필름",
		"name": "신촌",
		"contact": "02-844-9789",
		"address": "서울 서대문구 명물길 20",
		"url": "https://naver.me/xgkCzWSM",
		"studio": 0,
		"booth": 1,
		"lng": 126.9379,
		"lat": 37.55775
	},
	{
		"brand": "하루필름",
		"name": "홍대입구역",
		"contact": "정보 없음",
		"address": "서울 마포구 어울마당로 123",
		"url": "https://naver.me/FwkvAImj",
		"studio": 0,
		"booth": 1,
		"lng": 126.9236,
		"lat": 37.55566
	},
	{
		"brand": "하루필름",
		"name": "홍대",
		"contact": "070-7954-2649",
		"address": "서울 마포구 어울마당로 75 1층 4호",
		"url": "https://naver.me/5JJ0BvSE",
		"studio": 0,
		"booth": 1,
		"lng": 126.9213,
		"lat": 37.55186
	},
	{
		"brand": "하루필름",
		"name": "연남",
		"contact": "정보 없음",
		"address": "서울 마포구 동교로 46길 40",
		"url": "https://naver.me/x0abcOSW",
		"studio": 0,
		"booth": 1,
		"lng": 126.9267,
		"lat": 37.56215
	},
	{
		"brand": "하루필름",
		"name": "연트럴파크",
		"contact": "0507-1305-8374",
		"address": "서울 마포구 양화로 23길 30",
		"url": "https://naver.me/5ObAddUr",
		"studio": 0,
		"booth": 1,
		"lng": 126.925,
		"lat": 37.55972
	},
	{
		"brand": "하루필름",
		"name": "합정",
		"contact": "0507-1334-9619",
		"address": "서울 마포구 양화로 6길 45",
		"url": "https://naver.me/FDXK1mss",
		"studio": 0,
		"booth": 1,
		"lng": 126.9168,
		"lat": 37.54892
	},
	{
		"brand": "하루필름",
		"name": "망원",
		"contact": "0507-1345-1287",
		"address": "서울 마포구 포은로 87",
		"url": "https://naver.me/Gd6FusNk",
		"studio": 0,
		"booth": 1,
		"lng": 126.9051,
		"lat": 37.55483
	},
	{
		"brand": "하루필름",
		"name": "마곡",
		"contact": "0507-1303-3564",
		"address": "서울 강서구 강서로 385",
		"url": "https://naver.me/5UdzA2Te",
		"studio": 0,
		"booth": 1,
		"lng": 126.8383,
		"lat": 37.56009
	},
	{
		"brand": "하루필름",
		"name": "왕십리",
		"contact": "0507-1332-7760",
		"address": "서울 성동구 마조로 7길 13",
		"url": "https://naver.me/GqJvJu4m",
		"studio": 0,
		"booth": 1,
		"lng": 127.0398,
		"lat": 37.56072
	},
	{
		"brand": "하루필름",
		"name": "건대",
		"contact": "010-6763-4348",
		"address": "서울 광진구 아차산로 29길 22",
		"url": "https://naver.me/5Gzp1F6S",
		"studio": 0,
		"booth": 1,
		"lng": 127.0686,
		"lat": 37.54181
	},
	{
		"brand": "하루필름",
		"name": "천호",
		"contact": "02-347-2875",
		"address": "서울 강동구 천호대로 157길 34",
		"url": "https://naver.me/GbUgcELs",
		"studio": 0,
		"booth": 1,
		"lng": 127.1277,
		"lat": 37.5392
	},
	{
		"brand": "하루필름",
		"name": "서울숲",
		"contact": "010-3876-4484",
		"address": "서울 성동구 서울숲 2길 45",
		"url": "https://naver.me/FWrVkFLf",
		"studio": 0,
		"booth": 1,
		"lng": 127.0436,
		"lat": 37.54644
	},
	{
		"brand": "하루필름",
		"name": "성수",
		"contact": "010-7359-3706",
		"address": "서울 성동구 연무장길 17",
		"url": "https://naver.me/GVMNc8z1",
		"studio": 0,
		"booth": 1,
		"lng": 127.0515,
		"lat": 37.54374
	},
	{
		"brand": "하루필름",
		"name": "이태원",
		"contact": "0507-1442-6639",
		"address": "서울 용산구 이태원로 26길 16 2층",
		"url": "https://naver.me/G99ItJaz",
		"studio": 0,
		"booth": 1,
		"lng": 126.9933,
		"lat": 37.53369
	},
	{
		"brand": "하루필름",
		"name": "한남",
		"contact": "0507-1319-0817",
		"address": "서울 용산구 대사관로 5길 29",
		"url": "https://naver.me/FuQZQocJ",
		"studio": 0,
		"booth": 1,
		"lng": 127.0001,
		"lat": 37.53552
	},
	{
		"brand": "하루필름",
		"name": "송리단길",
		"contact": "0507-1487-3802",
		"address": "서울 송파구 오금로 18길 14",
		"url": "https://naver.me/FFQ0CNGv",
		"studio": 0,
		"booth": 1,
		"lng": 127.1103,
		"lat": 37.50977
	},
	{
		"brand": "하루필름",
		"name": "잠실새내",
		"contact": "0507-1353-3973",
		"address": "서울 송파구 백제고분로 7길 57",
		"url": "https://naver.me/5LABC2Fn",
		"studio": 0,
		"booth": 1,
		"lng": 127.0852,
		"lat": 37.51085
	},
	{
		"brand": "하루필름",
		"name": "가로수길",
		"contact": "정보 없음",
		"address": "서울 강남구 압구정로 2길 57",
		"url": "https://naver.me/GcBgi5nq",
		"studio": 0,
		"booth": 1,
		"lng": 127.0215,
		"lat": 37.51827
	},
	{
		"brand": "하루필름",
		"name": "강남",
		"contact": "0507-1487-3933",
		"address": "서울 강남구 테헤란로 1길 26",
		"url": "https://naver.me/GvX4qnDJ",
		"studio": 0,
		"booth": 1,
		"lng": 127.0277,
		"lat": 37.50001
	},
	{
		"brand": "하루필름",
		"name": "방이",
		"contact": "0507-1393-1103",
		"address": "서울 송파구 올림픽로 30길 9",
		"url": "https://naver.me/GE5rxBPN",
		"studio": 0,
		"booth": 1,
		"lng": 127.1082,
		"lat": 37.51495
	},
	{
		"brand": "하루필름",
		"name": "압구정로데오",
		"contact": "정보 없음",
		"address": "서울 강남구 언주로 164길 41",
		"url": "https://naver.me/5MUEP5RW",
		"studio": 0,
		"booth": 1,
		"lng": 127.0369,
		"lat": 37.52541
	},
	{
		"brand": "하루필름",
		"name": "강남역",
		"contact": "0507-1306-2968",
		"address": "서울 강남구 강남대로 102길 31",
		"url": "https://naver.me/FpXhVJ7U",
		"studio": 0,
		"booth": 1,
		"lng": 127.0278,
		"lat": 37.50309
	},
	{
		"brand": "하루필름",
		"name": "영등포",
		"contact": "0507-1330-7836",
		"address": "서울 영등포구 경인로 869-1",
		"url": "https://naver.me/FKp9BAab",
		"studio": 0,
		"booth": 1,
		"lng": 126.9092,
		"lat": 37.51753
	},
	{
		"brand": "하루필름",
		"name": "신림",
		"contact": "010-8370-1565",
		"address": "서울 관악구 남부순환로 176길 11",
		"url": "https://naver.me/Ff0d3gfM",
		"studio": 0,
		"booth": 1,
		"lng": 126.9286,
		"lat": 37.48347
	},
	{
		"brand": "하루필름",
		"name": "샤로수길",
		"contact": "0507-1453-6792",
		"address": "서울 관악구 남부순환로 230길 42",
		"url": "https://naver.me/FS6pF4FK",
		"studio": 0,
		"booth": 1,
		"lng": 126.9554,
		"lat": 37.47827
	},
	{
		"brand": "하루필름",
		"name": "광명철산",
		"contact": "0507-1468-0678",
		"address": "경기 광명시 오리로 856번길 8",
		"url": "https://naver.me/F4t3FPXn",
		"studio": 0,
		"booth": 1,
		"lng": 126.8677,
		"lat": 37.47489
	},
	{
		"brand": "하루필름",
		"name": "부천중동",
		"contact": "0507-1352-4129",
		"address": "경기 부천시 석천로 169번길 34",
		"url": "https://naver.me/Flzwkfuv",
		"studio": 0,
		"booth": 1,
		"lng": 126.7609,
		"lat": 37.50307
	},
	{
		"brand": "하루필름",
		"name": "부천",
		"contact": "0507-1492-5577",
		"address": "경기 부천시 부천로 9번길 29",
		"url": "https://naver.me/G3JqV9vX",
		"studio": 0,
		"booth": 1,
		"lng": 126.7813,
		"lat": 37.48531
	},
	{
		"brand": "하루필름",
		"name": "부평",
		"contact": "0507-1385-2968",
		"address": "인천 부평구 부평대로 32번길 11",
		"url": "https://naver.me/55Ij5ms4",
		"studio": 0,
		"booth": 1,
		"lng": 126.7237,
		"lat": 37.4944
	},
	{
		"brand": "플레이인더박스",
		"name": "제주시청",
		"contact": "0507-1417-1190",
		"address": "제주 제주시 광양 10길 5",
		"url": "https://naver.me/xGbjOZs1",
		"studio": 0,
		"booth": 1,
		"lng": 126.5295,
		"lat": 33.49913
	},
	{
		"brand": "플레이인더박스",
		"name": "라페스타",
		"contact": "070-5100-1173",
		"address": "경기 고양시 일산동구 중앙로 1275번길 56",
		"url": "https://naver.me/FijhQn0f",
		"studio": 0,
		"booth": 1,
		"lng": 126.7699,
		"lat": 37.65925
	},
	{
		"brand": "플레이인더박스",
		"name": "홍대",
		"contact": "0507-1343-9777",
		"address": "서울 마포구 홍익로 15",
		"url": "https://naver.me/xaCqLOIi",
		"studio": 0,
		"booth": 1,
		"lng": 126.923,
		"lat": 37.55377
	},
	{
		"brand": "플레이인더박스",
		"name": "더현대서울",
		"contact": "02-3277-0545",
		"address": "서울 영등포구 여의대로 108 더현대서울 5층",
		"url": "https://naver.me/5jAjF9aw",
		"studio": 0,
		"booth": 1,
		"lng": 126.9281,
		"lat": 37.52621
	},
	{
		"brand": "플레이인더박스",
		"name": "강남",
		"contact": "0507-1457-4500",
		"address": "서울 강남구 강남대로 102길 22",
		"url": "https://naver.me/5THjOscy",
		"studio": 0,
		"booth": 1,
		"lng": 127.0274,
		"lat": 37.50239
	},
	{
		"brand": "플레이인더박스",
		"name": "올림픽북단",
		"contact": "010-5087-0926",
		"address": "서울 광진구 아차산로 483",
		"url": "https://naver.me/GTOI9oAh",
		"studio": 0,
		"booth": 1,
		"lng": 127.0951,
		"lat": 37.54098
	},
	{
		"brand": "플레이인더박스",
		"name": "건대",
		"contact": "0507-1433-1172",
		"address": "서울 광진구 아차산로 215",
		"url": "https://naver.me/55nOY7wS",
		"studio": 0,
		"booth": 1,
		"lng": 127.0676,
		"lat": 37.5412
	},
	{
		"brand": "포토하임",
		"name": "조례",
		"contact": "0507-1354-3882",
		"address": "전남 순천시 봉화 2길 19",
		"url": "https://naver.me/xYUHxFAq",
		"studio": 0,
		"booth": 1,
		"lng": 127.518,
		"lat": 34.95543
	},
	{
		"brand": "포토하임",
		"name": "황리단길",
		"contact": "0507-1385-1689",
		"address": "경북 경주시 포석로 1068번길 15",
		"url": "https://naver.me/5NYI9vuw",
		"studio": 0,
		"booth": 1,
		"lng": 129.2113,
		"lat": 35.8362
	},
	{
		"brand": "포토하임",
		"name": "둔산",
		"contact": "0507-1312-4369",
		"address": "대전 서구 둔산로 34",
		"url": "https://naver.me/G7yOX102",
		"studio": 0,
		"booth": 1,
		"lng": 127.3775,
		"lat": 36.35142
	},
	{
		"brand": "포토하임",
		"name": "대전복합터미널",
		"contact": "0507-1319-4369",
		"address": "대전 동구 동서대로 1689",
		"url": "https://naver.me/GFnb31kj",
		"studio": 0,
		"booth": 1,
		"lng": 127.4366,
		"lat": 36.35026
	},
	{
		"brand": "포토하임",
		"name": "화천",
		"contact": "0507-1313-6377",
		"address": "강원 화천군 사내면 사내로 5길 9 2층",
		"url": "https://naver.me/5nPYIRNA",
		"studio": 0,
		"booth": 1,
		"lng": 127.5211,
		"lat": 38.07086
	},
	{
		"brand": "포토하임",
		"name": "이천",
		"contact": "010-9234-5206",
		"address": "경기 이천시 중리천로 59",
		"url": "https://naver.me/5UdzFa5G",
		"studio": 0,
		"booth": 1,
		"lng": 127.4445,
		"lat": 37.28012
	},
	{
		"brand": "포토하임",
		"name": "행궁",
		"contact": "0507-1344-2109",
		"address": "경기 수원시 팔달구 화서문로 42번길 1",
		"url": "https://naver.me/GazAadcQ",
		"studio": 0,
		"booth": 1,
		"lng": 127.0127,
		"lat": 37.28513
	},
	{
		"brand": "포토하임",
		"name": "고잔",
		"contact": "0507-1322-4691",
		"address": "경기 안산시 단원구 광덕2로 193-11",
		"url": "https://naver.me/xR0vqABf",
		"studio": 0,
		"booth": 1,
		"lng": 126.8319,
		"lat": 37.31082
	},
	{
		"brand": "포토하임",
		"name": "배곧",
		"contact": "0507-1482-4988",
		"address": "경기 시흥시 서울대학로 278번길 26",
		"url": "https://naver.me/5qANkXVi",
		"studio": 0,
		"booth": 1,
		"lng": 126.7278,
		"lat": 37.3689
	},
	{
		"brand": "포토하임",
		"name": "구월",
		"contact": "010-8019-6630",
		"address": "인천 남동구 인하로 497-15",
		"url": "https://naver.me/G2HY9U3j",
		"studio": 0,
		"booth": 1,
		"lng": 126.7017,
		"lat": 37.44424
	},
	{
		"brand": "포토하임",
		"name": "부천",
		"contact": "010-2665-5340",
		"address": "경기 부천시 부일로 459번길 20 센텀시티",
		"url": "https://naver.me/GrMeFB6W",
		"studio": 0,
		"booth": 1,
		"lng": 126.7819,
		"lat": 37.48677
	},
	{
		"brand": "포토하임",
		"name": "구로",
		"contact": "0507-1467-0615",
		"address": "서울 구로구 디지털로 32나길 19",
		"url": "https://naver.me/5QDIp4T8",
		"studio": 0,
		"booth": 1,
		"lng": 126.9004,
		"lat": 37.4841
	},
	{
		"brand": "포토하임",
		"name": "사가정",
		"contact": "0507-1342-2608",
		"address": "서울 중랑구 사가정로 51길 27",
		"url": "https://naver.me/FMwKk24C",
		"studio": 0,
		"booth": 1,
		"lng": 127.0878,
		"lat": 37.58215
	},
	{
		"brand": "포토하임",
		"name": "건대",
		"contact": "0507-1349-5481",
		"address": "서울 광진구 동일로22길 81",
		"url": "https://naver.me/G7yPmXBj",
		"studio": 0,
		"booth": 1,
		"lng": 127.0687,
		"lat": 37.54145
	},
	{
		"brand": "포토하임",
		"name": "해방촌",
		"contact": "0507-1313-5794",
		"address": "서울 용산구 신흥로 40",
		"url": "https://naver.me/FeemBmVV",
		"studio": 0,
		"booth": 1,
		"lng": 126.9874,
		"lat": 37.54195
	},
	{
		"brand": "포토하임",
		"name": "혜화",
		"contact": "0507-1324-2339",
		"address": "서울 종로구 대명길 35",
		"url": "https://naver.me/xBpoKlwp",
		"studio": 0,
		"booth": 1,
		"lng": 126.9997,
		"lat": 37.58296
	},
	{
		"brand": "포토하임",
		"name": "연남",
		"contact": "010-5570-0610",
		"address": "서울 마포구 성미산로 29안길 26",
		"url": "https://naver.me/I5JPKspJ",
		"studio": 0,
		"booth": 1,
		"lng": 126.9237,
		"lat": 37.56547
	},
	{
		"brand": "포토하임",
		"name": "홍대",
		"contact": "0507-1339-8328",
		"address": "서울 마포구 어울마당로 128",
		"url": "https://naver.me/FCLOAp08",
		"studio": 0,
		"booth": 1,
		"lng": 126.9243,
		"lat": 37.55573
	},
	{
		"brand": "포토하임",
		"name": "상수",
		"contact": "0507-1479-3414",
		"address": "서울 마포구 잔다리로 3",
		"url": "https://naver.me/5AqTCgK3",
		"studio": 0,
		"booth": 1,
		"lng": 126.9227,
		"lat": 37.55054
	},
	{
		"brand": "포토하임",
		"name": "여의도CGV",
		"contact": "0507-1360-0416",
		"address": "서울 영등포구 국제금융로 10 IFC몰 지하 3층",
		"url": "https://naver.me/FGenUhs7",
		"studio": 0,
		"booth": 1,
		"lng": 126.9257,
		"lat": 37.5253
	},
	{
		"brand": "포토하임",
		"name": "영등포",
		"contact": "0507-1361-9612",
		"address": "서울 영등포구 영중로 4길 13-2",
		"url": "https://naver.me/Gq10GvXc",
		"studio": 0,
		"booth": 1,
		"lng": 126.9079,
		"lat": 37.5175
	},
	{
		"brand": "포토매틱",
		"name": "본",
		"contact": "010-9476-1736",
		"address": "서울 강남구 도산대로 17길 36",
		"url": "https://www.photomatic.co.kr/PHOTOMATIC",
		"studio": 1,
		"booth": 1,
		"lng": 127.0241,
		"lat": 37.52106
	},
	{
		"brand": "포토매틱",
		"name": "홍대",
		"contact": "010-2153-2480",
		"address": "서울 마포구 월드컵북로 2길 93",
		"url": "https://www.photomatic.co.kr/PHOTOMATIC",
		"studio": 1,
		"booth": 1,
		"lng": 126.9248,
		"lat": 37.55877
	},
	{
		"brand": "포토매틱",
		"name": "다크룸",
		"contact": "010-4853-2019",
		"address": "서울 강남구 압구정로4길 27-2 지하 1층 다크룸 포토매틱",
		"url": "https://www.photomatic.co.kr/PHOTOMATIC",
		"studio": 1,
		"booth": 0,
		"lng": 127.021,
		"lat": 37.52152
	},
	{
		"brand": "포토매틱",
		"name": "TOGO",
		"contact": "010-2409-2413",
		"address": "서울 강남구 강남대로 162길 36",
		"url": "https://www.photomatic.co.kr/PHOTOMATIC",
		"studio": 1,
		"booth": 1,
		"lng": 127.0214,
		"lat": 37.5206
	},
	{
		"brand": "포토매틱",
		"name": "샵#",
		"contact": "070-4230-2019",
		"address": "서울 강남구 강남대로 162길 45",
		"url": "https://www.photomatic.co.kr/PHOTOMATIC",
		"studio": 1,
		"booth": 1,
		"lng": 127.022,
		"lat": 37.52114
	},
	{
		"brand": "포토매틱",
		"name": "Coffee & Cigarettes",
		"contact": "02-777-7557",
		"address": "서울 중구 서소문로 116",
		"url": "https://www.photomatic.co.kr/PHOTOMATIC",
		"studio": 0,
		"booth": 1,
		"lng": 126.974,
		"lat": 37.56274
	},
	{
		"brand": "포토매틱",
		"name": "그라운드시소",
		"contact": "070-4473-9742",
		"address": "서울 성동구 아차산로 17길 49",
		"url": "https://www.photomatic.co.kr/PHOTOMATIC",
		"studio": 0,
		"booth": 1,
		"lng": 127.0653,
		"lat": 37.54677
	},
	{
		"brand": "포토매틱",
		"name": "Stem Coffee",
		"contact": "070-4880-2781",
		"address": "서울 강남구 영동대로 513 코엑스",
		"url": "https://www.photomatic.co.kr/PHOTOMATIC",
		"studio": 0,
		"booth": 1,
		"lng": 127.0588,
		"lat": 37.51256
	},
	{
		"brand": "포토매틱",
		"name": "MUSEUM 209",
		"contact": "02-6953-8016",
		"address": "서울 송파구 잠실로 209 KT송파타워",
		"url": "https://www.photomatic.co.kr/PHOTOMATIC",
		"studio": 0,
		"booth": 1,
		"lng": 127.1064,
		"lat": 37.51387
	},
	{
		"brand": "포토매틱",
		"name": "오롤리데이",
		"contact": "정보 없음",
		"address": "경기도 성남시 분당구 판교역로 146번길 20 현대백화점",
		"url": "https://www.photomatic.co.kr/PHOTOMATIC",
		"studio": 0,
		"booth": 1,
		"lng": 127.1121,
		"lat": 37.3928
	},
	{
		"brand": "포토매틱",
		"name": "Chicor 대전 신세계",
		"contact": "042-607-8502",
		"address": "대전 유성구 엑스포로 17",
		"url": "https://www.photomatic.co.kr/PHOTOMATIC",
		"studio": 0,
		"booth": 1,
		"lng": 127.3821,
		"lat": 36.37473
	},
	{
		"brand": "포토매틱",
		"name": "세인트존스 호텔",
		"contact": "033-660-9000",
		"address": "강원도 강릉시 창해로 307 세인트존스 호텔",
		"url": "https://www.photomatic.co.kr/PHOTOMATIC",
		"studio": 0,
		"booth": 1,
		"lng": 128.9209,
		"lat": 37.79154
	},
	{
		"brand": "포토매틱",
		"name": "LOVE IS GIVING",
		"contact": "정보 없음",
		"address": "부산 수영구 광안로 49번길 24",
		"url": "https://www.photomatic.co.kr/PHOTOMATIC",
		"studio": 0,
		"booth": 1,
		"lng": 129.1183,
		"lat": 35.15604
	},
	{
		"brand": "포토매틱",
		"name": "WEK BUSAN",
		"contact": "02-1899-6190",
		"address": "부산광역시 해운대구 달맞이길 65번길 167",
		"url": "https://www.photomatic.co.kr/PHOTOMATIC",
		"studio": 0,
		"booth": 1,
		"lng": 129.1791,
		"lat": 35.15678
	},
	{
		"brand": "포토드링크",
		"name": "신사가로수길",
		"contact": "010-3171-3040",
		"address": "서울 강남구 강남대로 158길 45 대성빌딩",
		"url": "https://naver.me/xgkCcg0n",
		"studio": 0,
		"booth": 1,
		"lng": 127.0221,
		"lat": 37.52008
	},
	{
		"brand": "포토드링크",
		"name": "이태원",
		"contact": "0507-1370-1097",
		"address": "서울 용산구 이태원로 27가길 54",
		"url": "https://naver.me/xFVPAbVo",
		"studio": 0,
		"booth": 1,
		"lng": 126.9923,
		"lat": 37.535
	},
	{
		"brand": "포토드링크",
		"name": "강남",
		"contact": "02-1833-7536",
		"address": "서울 강남구 봉은사로 4길 37",
		"url": "https://naver.me/F36jqpTK",
		"studio": 0,
		"booth": 1,
		"lng": 127.0271,
		"lat": 37.50237
	},
	{
		"brand": "포토드링크",
		"name": "건대",
		"contact": "0507-1391-6459",
		"address": "서울 광진구 아차산로 29길 8",
		"url": "https://naver.me/FBQKaYL8",
		"studio": 0,
		"booth": 1,
		"lng": 127.0683,
		"lat": 37.54125
	},
	{
		"brand": "포토드링크",
		"name": "홍대",
		"contact": "0507-1484-0320",
		"address": "서울 마포구 어울마당로 116",
		"url": "https://naver.me/GpJnTG29",
		"studio": 0,
		"booth": 1,
		"lng": 126.9234,
		"lat": 37.55495
	},
	{
		"brand": "포토드링크",
		"name": "성신여대",
		"contact": "0507-1334-7972",
		"address": "서울 성북구 동소문로 22길 36",
		"url": "https://naver.me/FOXAh3Ad",
		"studio": 0,
		"booth": 1,
		"lng": 127.018,
		"lat": 37.59148
	},
	{
		"brand": "포토드링크",
		"name": "부평",
		"contact": "0507-1340-2261",
		"address": "인천 부평구 시장로 20",
		"url": "https://naver.me/xwDRyijW",
		"studio": 0,
		"booth": 1,
		"lng": 126.7252,
		"lat": 37.49257
	},
	{
		"brand": "포토드링크",
		"name": "해운대광장",
		"contact": "0507-1365-0265",
		"address": "부산 해운대구 구남로 26",
		"url": "https://naver.me/5DbsWmpF",
		"studio": 0,
		"booth": 1,
		"lng": 129.1603,
		"lat": 35.16164
	},
	{
		"brand": "포토드링크",
		"name": "광주충장로",
		"contact": "0507-1393-0186",
		"address": "광주 동구 중앙로 160번길 24",
		"url": "https://naver.me/Fee2vvDY",
		"studio": 0,
		"booth": 1,
		"lng": 126.9152,
		"lat": 35.1469
	},
	{
		"brand": "포토드링크",
		"name": "서면태화",
		"contact": "010-6520-4625",
		"address": "부산 부산진구 서전로 10번길 61",
		"url": "https://naver.me/FZqZG03b",
		"studio": 0,
		"booth": 1,
		"lng": 129.0604,
		"lat": 35.1551
	},
	{
		"brand": "포토드링크",
		"name": "동성로",
		"contact": "053-426-2030",
		"address": "대구 중구 동성로 6길 11 1층",
		"url": "https://naver.me/FBQK2ejl",
		"studio": 0,
		"booth": 1,
		"lng": 128.596,
		"lat": 35.86912
	},
	{
		"brand": "포토드링크",
		"name": "광안골든비치",
		"contact": "0507-1381-1704",
		"address": "부산 수영구 광안해변로 199",
		"url": "https://naver.me/xHiz1ocW",
		"studio": 0,
		"booth": 1,
		"lng": 129.117,
		"lat": 35.1521
	},
	{
		"brand": "포토드링크",
		"name": "제주",
		"contact": "064-801-0107",
		"address": "제주 제주시 애월읍 천덕로 880-24 지하 1층",
		"url": "https://naver.me/GfoWvYvq",
		"studio": 0,
		"booth": 1,
		"lng": 126.3625,
		"lat": 33.39085
	},
	{
		"brand": "인싸포토",
		"name": "부산 남구",
		"contact": "010-6765-0900",
		"address": "부산 남구 수영로 322번길 18",
		"url": "https://naver.me/5l6Pks2U",
		"studio": 0,
		"booth": 1,
		"lng": 129.1015,
		"lat": 35.13695
	},
	{
		"brand": "인싸포토",
		"name": "부산 사하구",
		"contact": "010-9900-3948",
		"address": "부산 사하구 낙동대로 535번길 10",
		"url": "https://naver.me/GWFcCJe5",
		"studio": 0,
		"booth": 1,
		"lng": 128.964,
		"lat": 35.11148
	},
	{
		"brand": "인싸포토",
		"name": "순천 오천",
		"contact": "0507-1382-2865",
		"address": "전남 순천시 오천6길 27-1 101호",
		"url": "https://naver.me/5cTRNB2j",
		"studio": 0,
		"booth": 1,
		"lng": 127.4952,
		"lat": 34.93347
	},
	{
		"brand": "인싸포토",
		"name": "자양",
		"contact": "0507-1372-0708",
		"address": "서울 광진구 능동로 18",
		"url": "https://naver.me/5jYEm0i5",
		"studio": 0,
		"booth": 1,
		"lng": 127.0681,
		"lat": 37.53315
	},
	{
		"brand": "인싸포토",
		"name": "화천",
		"contact": "0507-1483-0484",
		"address": "강원 화천군 화천읍 상승로 38-6",
		"url": "https://naver.me/IMphhyhG",
		"studio": 0,
		"booth": 1,
		"lng": 127.704,
		"lat": 38.10413
	},
	{
		"brand": "인싸포토",
		"name": "화양",
		"contact": "0507-1372-9593",
		"address": "서울 광진구 능동로 129",
		"url": "https://naver.me/Gw5ELyyE",
		"studio": 0,
		"booth": 1,
		"lng": 127.0716,
		"lat": 37.54244
	},
	{
		"brand": "인싸포토",
		"name": "여수 고소",
		"contact": "0507-1442-1777",
		"address": "전남 여수시 고소 3길 72",
		"url": "https://naver.me/x9Lxr1vD",
		"studio": 0,
		"booth": 1,
		"lng": 127.7425,
		"lat": 34.73831
	},
	{
		"brand": "인싸포토",
		"name": "원곡",
		"contact": "0507-1385-0054",
		"address": "경기 안산시 단원구 화랑로 103 3층",
		"url": "https://naver.me/FVckKA4N",
		"studio": 0,
		"booth": 1,
		"lng": 126.8008,
		"lat": 37.32704
	},
	{
		"brand": "인싸포토",
		"name": "파주 문산",
		"contact": "0507-1340-2831",
		"address": "경기 파주시 문산읍 문향로 71",
		"url": "https://naver.me/56YhtMuc",
		"studio": 0,
		"booth": 1,
		"lng": 126.7852,
		"lat": 37.85837
	},
	{
		"brand": "인싸포토",
		"name": "조례",
		"contact": "0507-1464-9750",
		"address": "전남 순천시 봉화 2길 38",
		"url": "https://naver.me/xwn7A1r3",
		"studio": 0,
		"booth": 1,
		"lng": 127.5183,
		"lat": 34.95683
	},
	{
		"brand": "인싸포토",
		"name": "인천구월",
		"contact": "010-5701-2326",
		"address": "인천 남동구 예술로 126",
		"url": "https://naver.me/FlPUr6GO",
		"studio": 0,
		"booth": 1,
		"lng": 126.701,
		"lat": 37.44526
	},
	{
		"brand": "인싸포토",
		"name": "노량진",
		"contact": "0507-1366-6821",
		"address": "서울 동작구 노량진로 16길 21",
		"url": "https://naver.me/F4rdnVWg",
		"studio": 0,
		"booth": 1,
		"lng": 126.9439,
		"lat": 37.51264
	},
	{
		"brand": "인싸포토",
		"name": "애막골",
		"contact": "0507-1351-4179",
		"address": "강원 춘천시 애막골길 3번길 39",
		"url": "https://naver.me/FIpEKSdc",
		"studio": 0,
		"booth": 1,
		"lng": 127.7532,
		"lat": 37.86728
	},
	{
		"brand": "인싸포토",
		"name": "구미상모",
		"contact": "0507-1338-4842",
		"address": "경북 구미시 상모로 50",
		"url": "https://naver.me/FaZNik29",
		"studio": 0,
		"booth": 1,
		"lng": 128.3555,
		"lat": 36.08947
	},
	{
		"brand": "인싸포토",
		"name": "의왕",
		"contact": "0507-1341-8755",
		"address": "경기 의왕시 보식골로 1",
		"url": "https://naver.me/F6J9kbjX",
		"studio": 0,
		"booth": 1,
		"lng": 126.9683,
		"lat": 37.35873
	},
	{
		"brand": "인싸포토",
		"name": "노원",
		"contact": "02-1566-0426",
		"address": "서울 노원구 상계로 64",
		"url": "https://naver.me/xBpvfSOm",
		"studio": 0,
		"booth": 1,
		"lng": 127.0623,
		"lat": 37.6558
	},
	{
		"brand": "인싸포토",
		"name": "구의",
		"contact": "010-4555-7048",
		"address": "서울 광진구 자양로 18길 19",
		"url": "https://naver.me/5wmVkoB1",
		"studio": 0,
		"booth": 1,
		"lng": 127.0847,
		"lat": 37.5378
	},
	{
		"brand": "인싸포토",
		"name": "한경대",
		"contact": "010-8755-0229",
		"address": "경기 안성시 비룡 1길 34",
		"url": "https://naver.me/F6JND01D",
		"studio": 0,
		"booth": 1,
		"lng": 127.2651,
		"lat": 37.01364
	},
	{
		"brand": "인싸포토",
		"name": "남양주진건",
		"contact": "0507-1325-6114",
		"address": "경기 남양주시 진건읍 사릉로 442번길 25",
		"url": "https://naver.me/5Aq61jKj",
		"studio": 0,
		"booth": 1,
		"lng": 127.1777,
		"lat": 37.65913
	},
	{
		"brand": "인싸포토",
		"name": "용인포곡",
		"contact": "0507-1342-1848",
		"address": "경기 용인시 처인구 포곡읍 포곡로 108 1층",
		"url": "https://naver.me/xCrYVhfC",
		"studio": 0,
		"booth": 1,
		"lng": 127.2175,
		"lat": 37.26909
	},
	{
		"brand": "인싸포토",
		"name": "계명대",
		"contact": "0507-1471-2368",
		"address": "대구 달서구 계대동문로 2",
		"url": "https://naver.me/GulFeMXz",
		"studio": 0,
		"booth": 1,
		"lng": 128.4925,
		"lat": 35.85539
	},
	{
		"brand": "인싸포토",
		"name": "민락",
		"contact": "070-8873-2368",
		"address": "경기 의정부시 오목로 205번길 39",
		"url": "https://naver.me/50p4fKV3",
		"studio": 0,
		"booth": 1,
		"lng": 127.0965,
		"lat": 37.74549
	},
	{
		"brand": "인싸포토",
		"name": "발산",
		"contact": "010-7593-9796",
		"address": "서울 강서구 공항대로 36길 129",
		"url": "https://naver.me/GTWwpOQN",
		"studio": 0,
		"booth": 1,
		"lng": 126.8358,
		"lat": 37.55278
	},
	{
		"brand": "인싸포토",
		"name": "부안",
		"contact": "0507-1369-2483",
		"address": "전북 부안군 부안읍 동중 1길 29",
		"url": "https://naver.me/54kgTJ2m",
		"studio": 0,
		"booth": 1,
		"lng": 126.7366,
		"lat": 35.7275
	},
	{
		"brand": "인싸컷",
		"name": "영등포",
		"contact": "0507-1333-1342",
		"address": "서울 영등포구 영중로 4길 16",
		"url": "https://naver.me/Ft8nuW56",
		"studio": 0,
		"booth": 1,
		"lng": 126.9081,
		"lat": 37.51727
	},
	{
		"brand": "인싸컷",
		"name": "의정부",
		"contact": "0507-1305-6939",
		"address": "경기 의정부시 행복로 27",
		"url": "https://naver.me/xagQioac",
		"studio": 0,
		"booth": 1,
		"lng": 127.0493,
		"lat": 37.74119
	},
	{
		"brand": "인싸컷",
		"name": "성남신흥",
		"contact": "0507-1325-6834",
		"address": "경기 성남시 수정구 산성대로 255번길 12",
		"url": "https://naver.me/GTgnv0Bn",
		"studio": 0,
		"booth": 1,
		"lng": 127.1451,
		"lat": 37.4412
	},
	{
		"brand": "인스포토",
		"name": "미추홀",
		"contact": "정보 없음",
		"address": "인천 미추홀구 경인남길 30번길 41",
		"url": "https://naver.me/GkJOQ7HV",
		"studio": 0,
		"booth": 1,
		"lng": 126.6568,
		"lat": 37.45189
	},
	{
		"brand": "인스포토",
		"name": "금호",
		"contact": "070-8852-3239",
		"address": "서울 성동구 장터길 36",
		"url": "https://naver.me/xHi9rbPX",
		"studio": 0,
		"booth": 1,
		"lng": 127.0198,
		"lat": 37.54821
	},
	{
		"brand": "인스포토",
		"name": "연남",
		"contact": "070-8852-2888",
		"address": "서울 마포구 연희로 1길 51",
		"url": "https://naver.me/G8mKPKL3",
		"studio": 0,
		"booth": 1,
		"lng": 126.9261,
		"lat": 37.56118
	},
	{
		"brand": "인스포토",
		"name": "사가정",
		"contact": "0507-1363-9128",
		"address": "서울 중랑구 면목로 318",
		"url": "https://naver.me/xCrhaB3U",
		"studio": 0,
		"booth": 1,
		"lng": 127.0885,
		"lat": 37.58024
	},
	{
		"brand": "인스포토",
		"name": "연남 2호",
		"contact": "0507-1356-4553",
		"address": "서울 마포구 양화로21길 33",
		"url": "https://naver.me/x1g1xern",
		"studio": 0,
		"booth": 1,
		"lng": 126.9244,
		"lat": 37.55966
	},
	{
		"brand": "인스포토",
		"name": "샤로수길",
		"contact": "0507-1363-0412",
		"address": "서울 관악구 관악로14길 103",
		"url": "https://naver.me/xMbpsCer",
		"studio": 0,
		"booth": 1,
		"lng": 126.9581,
		"lat": 37.47786
	},
	{
		"brand": "인스포토",
		"name": "소하",
		"contact": "0507-1395-8236",
		"address": "경기 광명시 소하로 82",
		"url": "https://naver.me/FpXhZr8U",
		"studio": 0,
		"booth": 1,
		"lng": 126.8834,
		"lat": 37.44764
	},
	{
		"brand": "인스포토",
		"name": "시흥",
		"contact": "02-463-2888",
		"address": "서울 금천구 금하로 763",
		"url": "https://naver.me/xPQJzmse",
		"studio": 0,
		"booth": 1,
		"lng": 126.9146,
		"lat": 37.45035
	},
	{
		"brand": "인스포토",
		"name": "후곡",
		"contact": "0507-1498-0030",
		"address": "경기 고양시 일산서구 일산로 542",
		"url": "https://naver.me/Ge3XW16l",
		"studio": 0,
		"booth": 1,
		"lng": 126.768,
		"lat": 37.67793
	},
	{
		"brand": "인스포토",
		"name": "송우",
		"contact": "070-8852-3240",
		"address": "경기 포천시 소흘읍 송우로 74",
		"url": "https://naver.me/5F3LWkc9",
		"studio": 0,
		"booth": 1,
		"lng": 127.1413,
		"lat": 37.83008
	},
	{
		"brand": "인스포토",
		"name": "죽전",
		"contact": "0507-1317-0835",
		"address": "경기 용인시 수지구 현암로 135",
		"url": "https://naver.me/F7x4RNzd",
		"studio": 0,
		"booth": 1,
		"lng": 127.1244,
		"lat": 37.33194
	},
	{
		"brand": "인스포토",
		"name": "금릉",
		"contact": "070-8852-3238",
		"address": "경기 파주시 금빛로 24-27",
		"url": "https://naver.me/xKYj2ZZg",
		"studio": 0,
		"booth": 1,
		"lng": 126.7683,
		"lat": 37.75196
	},
	{
		"brand": "오디티모드",
		"name": "신라스테이 광화문",
		"contact": "0507-1466-4105",
		"address": "서울 종로구 삼봉로 71 10층",
		"url": "https://naver.me/GBfYG9fv",
		"studio": 1,
		"booth": 0,
		"lng": 126.9811,
		"lat": 37.57266
	},
	{
		"brand": "오디티모드",
		"name": "레스케이프 명동",
		"contact": "0507-1344-4105",
		"address": "서울 중구 퇴계로 67 9층",
		"url": "https://naver.me/F1Lfn4V4",
		"studio": 1,
		"booth": 0,
		"lng": 126.9795,
		"lat": 37.55983
	},
	{
		"brand": "오디티모드",
		"name": "이태원",
		"contact": "0507-1412-4105",
		"address": "서울 용산구 한남대로27가길 26-14 지하 1층",
		"url": "https://naver.me/xKYBupWc",
		"studio": 1,
		"booth": 0,
		"lng": 127.0029,
		"lat": 37.53812
	},
	{
		"brand": "오디티모드",
		"name": "성수",
		"contact": "0507-1481-0062",
		"address": "서울 성동구 서울숲2길 8-8 지하 1층",
		"url": "https://naver.me/IImNDhBt",
		"studio": 1,
		"booth": 0,
		"lng": 127.0394,
		"lat": 37.54727
	},
	{
		"brand": "오디티모드",
		"name": "신라스테이 마포",
		"contact": "0507-1413-4105",
		"address": "서울 마포구 마포대로 83 3층",
		"url": "https://naver.me/FHY1ZxZ6",
		"studio": 1,
		"booth": 0,
		"lng": 126.9497,
		"lat": 37.54288
	},
	{
		"brand": "오디티모드",
		"name": "신촌현대백화점",
		"contact": "0507-1396-4105",
		"address": "서울 서대문구 연세로 13 지하 1층",
		"url": "https://naver.me/GLKlndyf",
		"studio": 1,
		"booth": 0,
		"lng": 126.9366,
		"lat": 37.55674
	},
	{
		"brand": "오디티모드",
		"name": "홍대",
		"contact": "0507-1365-4105",
		"address": "서울 마포구 동교로 212-28 2층",
		"url": "https://naver.me/GMRvFMlp",
		"studio": 1,
		"booth": 0,
		"lng": 126.9244,
		"lat": 37.55943
	},
	{
		"brand": "오디티모드",
		"name": "건대",
		"contact": "0507-1372-4105",
		"address": "서울 광진구 아차산로31길 28 3층",
		"url": "https://naver.me/FhAdU0bW",
		"studio": 1,
		"booth": 0,
		"lng": 127.0699,
		"lat": 37.54215
	},
	{
		"brand": "오디티모드",
		"name": "강남",
		"contact": "0507-1313-0530",
		"address": "서울 서초구 강남대로 455 지하 1층",
		"url": "https://naver.me/GqBsbtCP",
		"studio": 1,
		"booth": 0,
		"lng": 127.0247,
		"lat": 37.50285
	},
	{
		"brand": "오디티모드",
		"name": "신라스테이 삼성",
		"contact": "0507-1398-4105",
		"address": "서울 강남구 영동대로 506 5층",
		"url": "https://naver.me/xFptQMLy",
		"studio": 1,
		"booth": 0,
		"lng": 127.0632,
		"lat": 37.50998
	},
	{
		"brand": "오디티모드",
		"name": "잠실",
		"contact": "0507-1472-4105",
		"address": "서울 송파구 백제고분로45길 24 2층",
		"url": "https://naver.me/FKZEqyok",
		"studio": 1,
		"booth": 0,
		"lng": 127.109,
		"lat": 37.51024
	},
	{
		"brand": "오디티모드",
		"name": "신라스테이 구로",
		"contact": "0507-1395-4105",
		"address": "서울 동작구 시흥대로 596",
		"url": "https://naver.me/5fnyNEjN",
		"studio": 1,
		"booth": 0,
		"lng": 126.9045,
		"lat": 37.4856
	},
	{
		"brand": "오디티모드",
		"name": "수원 행궁동",
		"contact": "0507-1371-4105",
		"address": "경기 수원시 팔달구 화서문로 64 2층",
		"url": "https://naver.me/xJa25neC",
		"studio": 1,
		"booth": 0,
		"lng": 127.015,
		"lat": 37.28558
	},
	{
		"brand": "오디티모드",
		"name": "대전 둔산동",
		"contact": "0507-1340-4105",
		"address": "대전 서구 둔산로 32-22 3층",
		"url": "https://naver.me/GY2TpnQI",
		"studio": 1,
		"booth": 0,
		"lng": 127.3767,
		"lat": 36.35087
	},
	{
		"brand": "오디티모드",
		"name": "전주 객사",
		"contact": "0507-1318-4105",
		"address": "전북 전주시 완산구 전주객사2길 37 지하 1층",
		"url": "https://naver.me/x2PkO4Yj",
		"studio": 1,
		"booth": 0,
		"lng": 127.1405,
		"lat": 35.81838
	},
	{
		"brand": "오디티모드",
		"name": "부산 서면",
		"contact": "0507-1375-4105",
		"address": "부산 부산진구 동성로71번길 31 3층",
		"url": "https://naver.me/FOhuBwUV",
		"studio": 1,
		"booth": 0,
		"lng": 129.0665,
		"lat": 35.15681
	},
	{
		"brand": "미니 스위치",
		"name": "전남 여수",
		"contact": "정보 없음",
		"address": "전남 여수시 여서1로 59",
		"url": "https://naver.me/F7x7nw24",
		"studio": 0,
		"booth": 1,
		"lng": 127.7039,
		"lat": 34.75275
	},
	{
		"brand": "미니 스위치",
		"name": "화순",
		"contact": "정보 없음",
		"address": "전남 화순군 화순읍 만연로 66-7",
		"url": "https://naver.me/GRz9yM2p",
		"studio": 0,
		"booth": 1,
		"lng": 126.991,
		"lat": 35.0617
	},
	{
		"brand": "모노맨션",
		"name": "망원",
		"contact": "0507-1405-1113",
		"address": "서울 마포구 포은로 89",
		"url": "https://naver.me/xUE1O0c8",
		"studio": 0,
		"booth": 1,
		"lng": 126.905,
		"lat": 37.55502
	},
	{
		"brand": "모노맨션",
		"name": "홍대",
		"contact": "0507-1328-2213",
		"address": "서울 마포구 어울마당로 113-1",
		"url": "https://naver.me/5snpuSyd",
		"studio": 0,
		"booth": 1,
		"lng": 126.923,
		"lat": 37.55505
	},
	{
		"brand": "모노맨션",
		"name": "연남",
		"contact": "0507-1404-2321",
		"address": "서울 마포구 양화로23길 20",
		"url": "https://naver.me/GtbWJfQe",
		"studio": 0,
		"booth": 1,
		"lng": 126.9253,
		"lat": 37.55928
	},
	{
		"brand": "모노맨션",
		"name": "익선",
		"contact": "0507-1311-9351",
		"address": "서울 종로구 돈화문로11길 34-3",
		"url": "https://naver.me/5pj8nJjI",
		"studio": 0,
		"booth": 1,
		"lng": 126.9895,
		"lat": 37.5728
	},
	{
		"brand": "모노맨션",
		"name": "마로니에",
		"contact": "0507-1344-9464",
		"address": "서울 종로구 대학로8가길 93",
		"url": "https://naver.me/Fijmus6e",
		"studio": 0,
		"booth": 1,
		"lng": 127.0035,
		"lat": 37.58185
	},
	{
		"brand": "모노맨션",
		"name": "성수",
		"contact": "0507-1466-4322",
		"address": "서울 성동구 연무장길 30",
		"url": "https://naver.me/5RRJ6Rsz",
		"studio": 0,
		"booth": 1,
		"lng": 127.0528,
		"lat": 37.54312
	},
	{
		"brand": "모노맨션",
		"name": "산본",
		"contact": "0507-1415-2035",
		"address": "경기 군포시 광정로 60",
		"url": "https://naver.me/x5lPcfPz",
		"studio": 0,
		"booth": 1,
		"lng": 126.9308,
		"lat": 37.35872
	},
	{
		"brand": "모노맨션",
		"name": "의정부",
		"contact": "0507-1317-5441",
		"address": "경기 의정부시 행복로 4",
		"url": "https://naver.me/xcufjIWh",
		"studio": 0,
		"booth": 1,
		"lng": 127.0483,
		"lat": 37.73922
	},
	{
		"brand": "모노맨션",
		"name": "수원 인계",
		"contact": "0507-1318-7140",
		"address": "경기 수원시 팔달구 효원로265번길 54",
		"url": "https://naver.me/GG4KhBVw",
		"studio": 0,
		"booth": 1,
		"lng": 127.0319,
		"lat": 37.26437
	},
	{
		"brand": "모노맨션",
		"name": "송리단길",
		"contact": "010-2820-7708",
		"address": "서울 송파구 백제고분로45길 22-1",
		"url": "https://naver.me/FVb0UToB",
		"studio": 0,
		"booth": 1,
		"lng": 127.1092,
		"lat": 37.51013
	},
	{
		"brand": "모노맨션",
		"name": "분당 서현",
		"contact": "0507-1360-1880",
		"address": "경기 성남시 분당구 서현로210번길 16",
		"url": "https://naver.me/54kcquun",
		"studio": 0,
		"booth": 1,
		"lng": 127.1244,
		"lat": 37.38607
	},
	{
		"brand": "모노맨션",
		"name": "수원역",
		"contact": "0507-1361-3105",
		"address": "경기 수원시 팔달구 향교로 23",
		"url": "https://naver.me/5LoDflsm",
		"studio": 0,
		"booth": 1,
		"lng": 127.0036,
		"lat": 37.26847
	},
	{
		"brand": "모노맨션",
		"name": "동성로",
		"contact": "0507-1461-9981",
		"address": "대구 중구 동성로5길 54",
		"url": "https://naver.me/5UdY43b2",
		"studio": 0,
		"booth": 1,
		"lng": 128.5976,
		"lat": 35.86731
	},
	{
		"brand": "모노맨션",
		"name": "부산 전포",
		"contact": "0507-1350-9812",
		"address": "부산 부산진구 전포대로209번길 43",
		"url": "https://naver.me/xA3jgyNU",
		"studio": 0,
		"booth": 1,
		"lng": 129.0628,
		"lat": 35.15528
	},
	{
		"brand": "모노맨션",
		"name": "청주",
		"contact": "0507-1343-4153",
		"address": "충북 청주시 상당구 사직대로 372",
		"url": "https://naver.me/Gx6nnbKa",
		"studio": 0,
		"booth": 1,
		"lng": 127.4887,
		"lat": 36.63677
	},
	{
		"brand": "모노맨션",
		"name": "사상",
		"contact": "0507-1332-7853",
		"address": "부산 사상구 사상로 208",
		"url": "https://naver.me/xCilzWHo",
		"studio": 0,
		"booth": 1,
		"lng": 128.9842,
		"lat": 35.16363
	},
	{
		"brand": "모노맨션",
		"name": "부산 경성대",
		"contact": "0507-1353-1649",
		"address": "부산 남구 수영로322번길 8",
		"url": "https://naver.me/5eTXOkyi",
		"studio": 0,
		"booth": 1,
		"lng": 129.1013,
		"lat": 35.13734
	},
	{
		"brand": "데이비스셀피샵",
		"name": "강남센드럴시티",
		"contact": "0507-1411-1027",
		"address": "서울 서초구 신반포로 176",
		"url": "https://naver.me/Fnvjc3mN",
		"studio": 1,
		"booth": 0,
		"lng": 127.0032,
		"lat": 37.50421
	},
	{
		"brand": "데이비스셀피샵",
		"name": "아이파크몰",
		"contact": "0507-1311-4421",
		"address": "서울 용산구 한강대로23길 55 아이파크몰 4층",
		"url": "https://naver.me/GlV7qTGg",
		"studio": 1,
		"booth": 0,
		"lng": 126.9646,
		"lat": 37.52963
	},
	{
		"brand": "데이비스셀피샵",
		"name": "이태원",
		"contact": "0507-1397-0402",
		"address": "서울 용산구 이태원로14길 42",
		"url": "https://naver.me/F5bF08sL",
		"studio": 1,
		"booth": 0,
		"lng": 126.9912,
		"lat": 37.53263
	},
	{
		"brand": "데이비스셀피샵",
		"name": "연남",
		"contact": "0507-1437-0414",
		"address": "서울 마포구 성미산로23길 70 2층,3층",
		"url": "https://naver.me/GMRPuN2s",
		"studio": 1,
		"booth": 0,
		"lng": 126.9199,
		"lat": 37.56631
	},
	{
		"brand": "데이비스셀피샵",
		"name": "DMC 홍대",
		"contact": "0507-1455-0914",
		"address": "서울 서대문구 가재울미래로 2 105동",
		"url": "https://naver.me/5L3uctxx",
		"studio": 1,
		"booth": 0,
		"lng": 126.917,
		"lat": 37.57282
	},
	{
		"brand": "1PERCENT",
		"name": "영등포",
		"contact": "0507-1333-6453",
		"address": "서울 영등포구 영등포로50길 9",
		"url": "https://naver.me/5QGd9pz1",
		"studio": 0,
		"booth": 1,
		"lng": 126.9094,
		"lat": 37.51806
	},
	{
		"brand": "1PERCENT",
		"name": "건대",
		"contact": "010-7303-0699",
		"address": "서울 광진구 아차산로 244",
		"url": "https://naver.me/5jY8ooAP",
		"studio": 0,
		"booth": 1,
		"lng": 127.0702,
		"lat": 37.53971
	},
	{
		"brand": "1PERCENT",
		"name": "동탄역",
		"contact": "010-9922-0699",
		"address": "경기 화성시 동탄대로 489",
		"url": "https://naver.me/FmOPgJJm",
		"studio": 0,
		"booth": 1,
		"lng": 127.0983,
		"lat": 37.19736
	},
	{
		"brand": "비키포토엘에이",
		"name": "본",
		"contact": "0507-1333-4708",
		"address": "서울 용산구 이태원로 165",
		"url": "https://naver.me/FLDm1LBX",
		"studio": 0,
		"booth": 1,
		"lng": 126.9923,
		"lat": 37.53455
	},
	{
		"brand": "비키포토엘에이",
		"name": "홍대",
		"contact": "0507-1385-3019",
		"address": "서울 마포구 양화로18안길 8",
		"url": "https://naver.me/xWirSwA9",
		"studio": 0,
		"booth": 1,
		"lng": 126.9251,
		"lat": 37.55661
	},
	{
		"brand": "비키포토엘에이",
		"name": "건대",
		"contact": "0507-1496-8922",
		"address": "서울 광진구 아차산로30길 15",
		"url": "https://naver.me/5FZo1na4",
		"studio": 0,
		"booth": 1,
		"lng": 127.0677,
		"lat": 37.54001
	},
	{
		"brand": "홍대네컷",
		"name": "성수 2호",
		"contact": "0507-1344-5989",
		"address": "서울 성동구 연무장길 56-1",
		"url": "https://naver.me/52lUKaF8",
		"studio": 0,
		"booth": 1,
		"lng": 127.0555,
		"lat": 37.54231
	},
	{
		"brand": "홍대네컷",
		"name": "서교",
		"contact": "0507-1487-0026",
		"address": "서울 마포구 홍익로3길 20 서교프라자",
		"url": "https://naver.me/xorKZlQy",
		"studio": 0,
		"booth": 1,
		"lng": 126.9217,
		"lat": 37.55352
	},
	{
		"brand": "홍대네컷",
		"name": "뚝섬유원지",
		"contact": "0507-1331-9321",
		"address": "서울 광진구 능동로 30",
		"url": "https://naver.me/5dO5W6ul",
		"studio": 0,
		"booth": 1,
		"lng": 127.0682,
		"lat": 37.53402
	},
	{
		"brand": "홍대네컷",
		"name": "성수 1호",
		"contact": "0507-1388-3878",
		"address": "서울 성동구 연무장길 2",
		"url": "https://naver.me/5cTuk0q8",
		"studio": 0,
		"booth": 1,
		"lng": 127.0499,
		"lat": 37.54403
	},
	{
		"brand": "홍대네컷",
		"name": "이태원",
		"contact": "0507-1446-0715",
		"address": "서울 용산구 이태원로26길 12 2층",
		"url": "https://naver.me/x1amKohU",
		"studio": 0,
		"booth": 1,
		"lng": 126.9932,
		"lat": 37.53378
	},
	{
		"brand": "홍대네컷",
		"name": "혜화",
		"contact": "정보 없음",
		"address": "서울 종로구 대학로12길 43",
		"url": "https://naver.me/50pEs8lB",
		"studio": 0,
		"booth": 1,
		"lng": 127.004,
		"lat": 37.58219
	},
	{
		"brand": "홍대네컷",
		"name": "서산 예천",
		"contact": "0507-1365-8948",
		"address": "충남 서산시 호수공원5로 16",
		"url": "https://naver.me/x9J5u62r",
		"studio": 0,
		"booth": 1,
		"lng": 126.4487,
		"lat": 36.77493
	},
	{
		"brand": "홍대네컷",
		"name": "합정",
		"contact": "0507-1446-5202",
		"address": "서울 마포구 양화로6길 72",
		"url": "https://naver.me/FFvSA4Ku",
		"studio": 0,
		"booth": 1,
		"lng": 126.9181,
		"lat": 37.54845
	},
	{
		"brand": "홍대네컷",
		"name": "홍대 2호",
		"contact": "정보 없음",
		"address": "서울 마포구 홍익로3길 25",
		"url": "https://naver.me/FSQDrzax",
		"studio": 0,
		"booth": 1,
		"lng": 126.9218,
		"lat": 37.55326
	},
	{
		"brand": "홍대네컷",
		"name": "상수",
		"contact": "010-8675-5202",
		"address": "서울 마포구 와우산로15길 29",
		"url": "https://naver.me/FEJMvevr",
		"studio": 0,
		"booth": 1,
		"lng": 126.9218,
		"lat": 37.54918
	},
	{
		"brand": "홍대네컷",
		"name": "일산 웨돔",
		"contact": "02-786-4000",
		"address": "경기 고양시 일산동구 정발산로 38",
		"url": "https://naver.me/G2U8diLZ",
		"studio": 0,
		"booth": 1,
		"lng": 126.7731,
		"lat": 37.65672
	},
	{
		"brand": "홍대네컷",
		"name": "수원 행궁",
		"contact": "031-474-1244",
		"address": "경기 수원시 팔달구 화서문로 33",
		"url": "https://naver.me/x78jY4Zv",
		"studio": 0,
		"booth": 1,
		"lng": 127.0116,
		"lat": 37.2851
	},
	{
		"brand": "홍대네컷",
		"name": "스퀘어원",
		"contact": "0507-1381-4084",
		"address": "인천 연수구 청능대로 210 4층",
		"url": "https://naver.me/FJHucNAu",
		"studio": 0,
		"booth": 1,
		"lng": 126.6829,
		"lat": 37.4059
	},
	{
		"brand": "홍대네컷",
		"name": "중동 현대",
		"contact": "010-9047-3807",
		"address": "경기 부천시 석천로177번길 11",
		"url": "https://naver.me/xkxq7rkY",
		"studio": 0,
		"booth": 1,
		"lng": 126.762,
		"lat": 37.50319
	},
	{
		"brand": "홍대네컷",
		"name": "수원 행궁 2호",
		"contact": "정보 없음",
		"address": "경기 수원시 팔달구 행궁로 31-3",
		"url": "https://naver.me/xgTPeUNQ",
		"studio": 0,
		"booth": 1,
		"lng": 127.0151,
		"lat": 37.27977
	},
	{
		"brand": "홍대네컷",
		"name": "춘천 중앙로",
		"contact": "0507-1418-9232",
		"address": "강원 춘천시 명동길 6-1",
		"url": "https://naver.me/xjizhojK",
		"studio": 0,
		"booth": 1,
		"lng": 127.7277,
		"lat": 37.8798
	},
	{
		"brand": "홍대네컷",
		"name": "동성로 1호",
		"contact": "0507-1365-7746",
		"address": "대구 중구 동성로 26",
		"url": "https://naver.me/xDsFVF1y",
		"studio": 0,
		"booth": 1,
		"lng": 128.5954,
		"lat": 35.86902
	},
	{
		"brand": "홍대네컷",
		"name": "대전",
		"contact": "0507-1350-9597",
		"address": "대전 중구 대종로480번길 23",
		"url": "https://naver.me/x8lisIe3",
		"studio": 0,
		"booth": 1,
		"lng": 127.4278,
		"lat": 36.32794
	},
	{
		"brand": "홍대네컷",
		"name": "동성로 2호",
		"contact": "0507-1427-5458",
		"address": "대구 중구 동성로3길 77",
		"url": "https://naver.me/FoWyDjAk",
		"studio": 0,
		"booth": 1,
		"lng": 128.598,
		"lat": 35.86885
	},
	{
		"brand": "홍대네컷",
		"name": "제천",
		"contact": "0507-1397-5360",
		"address": "충북 제천시 풍양로13길 12",
		"url": "https://naver.me/xGOBz9fF",
		"studio": 0,
		"booth": 1,
		"lng": 128.2114,
		"lat": 37.13816
	},
	{
		"brand": "홍대네컷",
		"name": "송천",
		"contact": "정보 없음",
		"address": "전북 전주시 덕진구 천마산로 53",
		"url": "https://naver.me/GttZBVVG",
		"studio": 0,
		"booth": 1,
		"lng": 127.1273,
		"lat": 35.86436
	},
	{
		"brand": "홍대네컷",
		"name": "대전 CGV",
		"contact": "0507-1483-7818",
		"address": "대전 중구 계백로 1700 6층",
		"url": "https://naver.me/5t4VLsFf",
		"studio": 0,
		"booth": 1,
		"lng": 127.4088,
		"lat": 36.32061
	}
]
